Code établissement;Appellation officielle;Dénomination principale;Patronyme uai;Secteur Public/Privé;Adresse;Lieu dit;Boite postale;Code postal;Localite d'acheminement;Commune;Coordonnee X;Coordonnee Y;EPSG;Latitude;Longitude;Qualité d'appariement;Localisation;Code nature;Nature;Code état établissement;Etat établissement;Code département;Code région;Code académie;Code commune;Département;Région;Académie;Position;secteur_prive_code_type_contrat;secteur_prive_libelle_type_contrat;code_ministere;libelle_ministere;date_ouverture
0090468K;Ecole élémentaire;ECOLE ELEMENTAIRE PUBLIQUE;;Public;VILLAGE;;;09000;ST MARTIN DE CARALP;Saint-Martin-de-Caralp;581158.1;6211208.3;EPSG:2154;42.99036718124561;1.5440102015328636;Parfaite;Numéro de rue;151;ECOLE DE NIVEAU ELEMENTAIRE;1;OUVERT;009;76;16;09269;Ariège;Occitanie;Toulouse;42.99036718124561,1.5440102015328636;99;SANS OBJET;06;MINISTERE DE L'EDUCATION NATIONALE;1968-12-02
0301025B;Ecole élémentaire Georges Lapierre;ECOLE ELEMENTAIRE PUBLIQUE;GEORGES LAPIERRE;Public;95 rue Albert André;;;30290;LAUDUN L ARDOISE;Laudun-l'Ardoise;832511.5;6335291.0;EPSG:2154;44.104122119227554;4.6552801960401196;Parfaite;Numéro de rue;151;ECOLE DE NIVEAU ELEMENTAIRE;1;OUVERT;030;76;11;30141;Gard;Occitanie;Montpellier;44.104122119227554,4.6552801960401196;99;SANS OBJET;06;MINISTERE DE L'EDUCATION NATIONALE;1970-06-04
0301293T;Ecole maternelle;ECOLE MATERNELLE PUBLIQUE;;Public;Rue Emile Pouytès;;;30820;CAVEIRAC;Caveirac;801442.4;6303436.4;EPSG:2154;43.8226509057993;4.260900485894291;Parfaite;Rue;101;ECOLE MATERNELLE;1;OUVERT;030;76;11;30075;Gard;Occitanie;Montpellier;43.8226509057993,4.260900485894291;99;SANS OBJET;06;MINISTERE DE L'EDUCATION NATIONALE;1976-05-24
0301375G;Ecole élémentaire;ECOLE ELEMENTAIRE PUBLIQUE;;Public;VILLAGE;;;30360;ST ETIENNE DE L OLM;Saint-Etienne-de-l'Olm;794849.3;6329506.6;EPSG:2154;44.05816243731443;4.183820548383531;Parfaite;Numéro de rue;151;ECOLE DE NIVEAU ELEMENTAIRE;1;OUVERT;030;76;11;30250;Gard;Occitanie;Montpellier;44.05816243731443,4.183820548383531;99;SANS OBJET;06;MINISTERE DE L'EDUCATION NATIONALE;1981-10-01
0301440C;Ecole élémentaire Peyrouse;ECOLE ELEMENTAIRE PUBLIQUE;PEYROUSE;Public;Avenue de Nîmes;;;30320;MARGUERITTES;Marguerittes;815770.8;6308016.0;EPSG:2154;43.8616518926109;4.439999415193569;Parfaite;Numéro de rue;151;ECOLE DE NIVEAU ELEMENTAIRE;1;OUVERT;030;76;11;30156;Gard;Occitanie;Montpellier;43.8616518926109,4.439999415193569;99;SANS OBJET;06;MINISTERE DE L'EDUCATION NATIONALE;1985-09-01
0301562K;Ecole maternelle Jean Jaurès;ECOLE MATERNELLE PUBLIQUE;JEAN JAURES;Public;Rue du Moulin à huile;;;30200;BAGNOLS SUR CEZE;Bagnols-sur-Cèze;829546.1;6342153.1;EPSG:2154;44.16642523066904;4.620006486316349;Correcte;Rue;101;ECOLE MATERNELLE;1;OUVERT;030;76;11;30028;Gard;Occitanie;Montpellier;44.16642523066904,4.620006486316349;99;SANS OBJET;06;MINISTERE DE L'EDUCATION NATIONALE;1993-09-01
0301814J;Ecole primaire L'île verte;ECOLE PRIMAIRE PUBLIQUE;L'ILE VERTE;Public;Chemin de Caveyrargues;;;30420;CALVISSON;Calvisson;796822.5;6299653.9;EPSG:2154;43.78926539698954;4.2027694369655215;Parfaite;Rue;151;ECOLE DE NIVEAU ELEMENTAIRE;1;OUVERT;030;76;11;30062;Gard;Occitanie;Montpellier;43.78926539698954,4.2027694369655215;99;SANS OBJET;06;MINISTERE DE L'EDUCATION NATIONALE;2013-09-01
0300317G;Ecole primaire;ECOLE PRIMAIRE PUBLIQUE;;Public;1 rue de l'Eglise;;;30210;CASTILLON DU GARD;Castillon-du-Gard;824689.4;6320297.1;EPSG:2154;43.970633887503354;4.5539103815365065;Parfaite;Numéro de rue;151;ECOLE DE NIVEAU ELEMENTAIRE;1;OUVERT;030;76;11;30073;Gard;Occitanie;Montpellier;43.970633887503354,4.5539103815365065;99;SANS OBJET;06;MINISTERE DE L'EDUCATION NATIONALE;1967-10-09
0300362F;Ecole primaire;ECOLE PRIMAIRE PUBLIQUE;;Public;18 place de l'Aire;;;30170;DURFORT ET ST MARTIN DE SOSSENAC;Durfort-et-Saint-Martin-de-Sossenac;776613.7;6321577.7;EPSG:2154;43.989031298781164;3.955048782195839;Correcte;Numéro de rue;151;ECOLE DE NIVEAU ELEMENTAIRE;1;OUVERT;030;76;11;30106;Gard;Occitanie;Montpellier;43.989031298781164,3.955048782195839;99;SANS OBJET;06;MINISTERE DE L'EDUCATION NATIONALE;1967-10-09
0300611B;Ecole maternelle Notre Dame de la Rouvière;ECOLE MATERNELLE PUBLIQUE;NOTRE DAME DE LA ROUVIERE;Public;;NOTRE DAME DE LA ROUVIERE;;30570;VAL D AIGOUAL;Val-d'Aigoual;756179.6;6327931.0;EPSG:2154;44.048136469012654;3.7010409100144264;Mauvaise;Ville;101;ECOLE MATERNELLE;1;OUVERT;030;76;11;30339;Gard;Occitanie;Montpellier;44.048136469012654,3.7010409100144264;99;SANS OBJET;06;MINISTERE DE L'EDUCATION NATIONALE;1967-10-11
0300730F;Ecole primaire;ECOLE PRIMAIRE PUBLIQUE;;Public;10 avenue Paul Blisson;;;30210;ST HILAIRE D OZILHAN;Saint-Hilaire-d'Ozilhan;827521.4;6320399.5;EPSG:2154;43.97104804768153;4.589219727761225;Parfaite;Numéro de rue;151;ECOLE DE NIVEAU ELEMENTAIRE;1;OUVERT;030;76;11;30260;Gard;Occitanie;Montpellier;43.97104804768153,4.589219727761225;99;SANS OBJET;06;MINISTERE DE L'EDUCATION NATIONALE;1967-10-11
0300844E;Ecole primaire les Trois Ponts;ECOLE PRIMAIRE PUBLIQUE;LES TROIS PONTS;Public;Ancienne route d'Alès;;;30700;SERVIERS ET LABAUME;Serviers-et-Labaume;808630.3;6327589.2;EPSG:2154;44.038913606438555;4.3553797588559195;Parfaite;Numéro de rue;151;ECOLE DE NIVEAU ELEMENTAIRE;1;OUVERT;030;76;11;30319;Gard;Occitanie;Montpellier;44.038913606438555,4.3553797588559195;99;SANS OBJET;06;MINISTERE DE L'EDUCATION NATIONALE;1967-10-11
0300895K;Ecole maternelle;ECOLE MATERNELLE PUBLIQUE;;Public;Allée des Mûriers;;;30310;VERGEZE;Vergèze;798506.0;6294513.7;EPSG:2154;43.74278343242041;4.2226905979643865;Parfaite;Numéro de rue;101;ECOLE MATERNELLE;1;OUVERT;030;76;11;30344;Gard;Occitanie;Montpellier;43.74278343242041,4.2226905979643865;99;SANS OBJET;06;MINISTERE DE L'EDUCATION NATIONALE;1967-10-11
0660049V;Collège Jean Moulin;COLLEGE;JEAN MOULIN;Public;41 place Jean Moulin;;;66000;PERPIGNAN;Perpignan;691759.8;6177487.3;EPSG:2154;42.696946728899846;2.8995594869976578;Parfaite;Numéro de rue;340;COLLEGE;1;OUVERT;066;76;11;66136;Pyrénées-Orientales;Occitanie;Montpellier;42.696946728899846,2.8995594869976578;99;SANS OBJET;06;MINISTERE DE L'EDUCATION NATIONALE;1966-11-02
0090007J;Collège Victor Hugo;COLLEGE;VICTOR HUGO;Public;6 rue du Collège;;;09300;LAVELANET;Lavelanet;606273.1;6205181.6;EPSG:2154;42.9398982453581;1.8527298202476252;Parfaite;Numéro de rue;340;COLLEGE;1;OUVERT;009;76;16;09160;Ariège;Occitanie;Toulouse;42.9398982453581,1.8527298202476252;99;SANS OBJET;06;MINISTERE DE L'EDUCATION NATIONALE;1965-05-01
0090009L;Collège François Verdier;COLLEGE;FRANCOIS VERDIER;Public;Avenue des Pyrénées;;;09210;LEZAT SUR LEZE;Lézat-sur-Lèze;565951.7;6242769.7;EPSG:2154;43.271499441731265;1.3496797969459409;Parfaite;Numéro de rue;340;COLLEGE;1;OUVERT;009;76;16;09167;Ariège;Occitanie;Toulouse;43.271499441731265,1.3496797969459409;99;SANS OBJET;06;MINISTERE DE L'EDUCATION NATIONALE;1965-05-01
0090010M;Collège André Saint-Paul;COLLEGE;ANDRE SAINT-PAUL;Public;23 avenue de la Gare;;;09290;LE MAS D AZIL;Le Mas-d'Azil;566847.1;6221386.9;EPSG:2154;43.0793751437619;1.3661465451820436;Parfaite;Numéro de rue;340;COLLEGE;1;OUVERT;009;76;16;09181;Ariège;Occitanie;Toulouse;43.0793751437619,1.3661465451820436;99;SANS OBJET;06;MINISTERE DE L'EDUCATION NATIONALE;1965-05-01
0090015T;Lycée polyvalent Pyrène;LYCEE POLYVALENT;PYRENE;Public;Place DU MERCADAL;;30178;09104;PAMIERS CEDEX;Pamiers;586709.4;6224960.9;EPSG:2154;43.11493601381398;1.609039771039155;Parfaite;Numéro de rue;306;LYCEE POLYVALENT;1;OUVERT;009;76;16;09225;Ariège;Occitanie;Toulouse;43.11493601381398,1.609039771039155;99;SANS OBJET;06;MINISTERE DE L'EDUCATION NATIONALE;1965-05-01
0090022A;Lycée d'enseignement général et technologique agricole de Pamiers;LEGT AGRICOLE;DE PAMIERS;Public;Route de belpech;;;09100;PAMIERS;Pamiers;589511.7;6225857.5;EPSG:2154;43.12343764948992;1.6432498879149684;Parfaite;Numéro de rue;300;LYCEE ENSEIGNT GENERAL ET TECHNOLOGIQUE;1;OUVERT;009;76;16;09225;Ariège;Occitanie;Toulouse;43.12343764948992,1.6432498879149684;99;SANS OBJET;03;AGRICULTURE;1965-05-15
0090045A;Lycée professionnel privé Les Jacobins;LYCEE PROFESSIONNEL PRIVE;LES JACOBINS;Privé;2 bis avenue DE LA PAIX;;;09100;PAMIERS;Pamiers;587431.6;6224215.3;EPSG:2154;43.10834494270783;1.6180651825436991;Parfaite;Numéro de rue;320;LYCEE PROFESSIONNEL;1;OUVERT;009;76;16;09225;Ariège;Occitanie;Toulouse;43.10834494270783,1.6180651825436991;30;CONTRAT D'ASSOCIATION TOUTES CLASSES;06;MINISTERE DE L'EDUCATION NATIONALE;1967-04-04
0090060S;Ecole primaire Laborie;ECOLE PRIMAIRE PUBLIQUE;LABORIE;Public;Hameau de Laborie;;;09120;VARILHES;Varilhes;589396.8;6218220.9;EPSG:2154;43.05474543268556;1.6434500947368988;Parfaite;Numéro de rue;151;ECOLE DE NIVEAU ELEMENTAIRE;1;OUVERT;009;76;16;09324;Ariège;Occitanie;Toulouse;43.05474543268556,1.6434500947368988;99;SANS OBJET;06;MINISTERE DE L'EDUCATION NATIONALE;1968-12-11
0090067Z;Ecole primaire;ECOLE PRIMAIRE PUBLIQUE;;Public;Place Cante Raines;;;09700;LE VERNET;Le Vernet;586320.3;6232846.6;EPSG:2154;43.18579179974977;1.6025501787932048;Parfaite;Numéro de rue;151;ECOLE DE NIVEAU ELEMENTAIRE;1;OUVERT;009;76;16;09331;Ariège;Occitanie;Toulouse;43.18579179974977,1.6025501787932048;99;SANS OBJET;06;MINISTERE DE L'EDUCATION NATIONALE;1968-12-11
0090091A;Ecole primaire;ECOLE PRIMAIRE;;Public;28 route Corniches;;;09400;ARNAVE;Arnave;589261.4;6195859.8;EPSG:2154;42.85365871918494;1.646490401738689;Parfaite;Numéro de rue;151;ECOLE DE NIVEAU ELEMENTAIRE;1;OUVERT;009;76;16;09016;Ariège;Occitanie;Toulouse;42.85365871918494,1.646490401738689;99;SANS OBJET;06;MINISTERE DE L'EDUCATION NATIONALE;1968-12-03
0090093C;Ecole primaire;ECOLE PRIMAIRE PUBLIQUE;;Public;Place de l'Eglise;;;09130;ARTIGAT;Artigat;572955.6;6227497.4;EPSG:2154;43.135434593755804;1.4395994810451596;Parfaite;Numéro de rue;151;ECOLE DE NIVEAU ELEMENTAIRE;1;OUVERT;009;76;16;09019;Ariège;Occitanie;Toulouse;43.135434593755804,1.4395994810451596;99;SANS OBJET;06;MINISTERE DE L'EDUCATION NATIONALE;1968-12-04
0090102M;Ecole primaire;ECOLE PRIMAIRE PUBLIQUE;;Public;Rue des Ecoles;;;09220;AUZAT;Auzat;575666.5;6186468.7;EPSG:2154;42.76700626806563;1.4825701276857624;Parfaite;Rue;151;ECOLE DE NIVEAU ELEMENTAIRE;1;OUVERT;009;76;16;09030;Ariège;Occitanie;Toulouse;42.76700626806563,1.4825701276857624;99;SANS OBJET;06;MINISTERE DE L'EDUCATION NATIONALE;1968-12-04
0090146K;Ecole primaire;ECOLE PRIMAIRE;;Public;;LE VILLAGE;;09160;BETCHAT;Betchat;537975.6;6223440.4;EPSG:2154;43.091883866714205;1.0113805806331932;Correcte;Ville;151;ECOLE DE NIVEAU ELEMENTAIRE;1;OUVERT;009;76;16;09054;Ariège;Occitanie;Toulouse;43.091883866714205,1.0113805806331932;99;SANS OBJET;06;MINISTERE DE L'EDUCATION NATIONALE;1968-12-17
0090201V;Ecole primaire;ECOLE PRIMAIRE PUBLIQUE;;Public;;LE VILLAGE;;09800;ENGOMER;Engomer;541466.8;6207236.0;EPSG:2154;42.94697423574528;1.0591002486003511;Correcte;Ville;151;ECOLE DE NIVEAU ELEMENTAIRE;1;OUVERT;009;76;16;09111;Ariège;Occitanie;Toulouse;42.94697423574528,1.0591002486003511;99;SANS OBJET;06;MINISTERE DE L'EDUCATION NATIONALE;1968-12-16
0090205Z;Ecole primaire;ECOLE PRIMAIRE PUBLIQUE;;Public;4 avenue des Pyrénées;;;09100;ESCOSSE;Escosse;581793.8;6226067.3;EPSG:2154;43.12409001777449;1.5484506024572104;Parfaite;Numéro de rue;151;ECOLE DE NIVEAU ELEMENTAIRE;1;OUVERT;009;76;16;09116;Ariège;Occitanie;Toulouse;43.12409001777449,1.5484506024572104;99;SANS OBJET;06;MINISTERE DE L'EDUCATION NATIONALE;1968-12-09
0090214J;Ecole maternelle Parmentier;ECOLE MATERNELLE PUBLIQUE;PARMENTIER;Public;Rue du Collège;;;09000;FOIX;Foix;586166.3;6208226.5;EPSG:2154;42.96436816221205;1.605999914518639;Parfaite;Numéro de rue;101;ECOLE MATERNELLE;1;OUVERT;009;76;16;09122;Ariège;Occitanie;Toulouse;42.96436816221205,1.605999914518639;99;SANS OBJET;06;MINISTERE DE L'EDUCATION NATIONALE;1968-12-02
0090219P;Ecole primaire Nelson Mandela  Madiba;ECOLE PRIMAIRE PUBLIQUE;NELSON MANDELA MADIBA;Public;Rue Jules Palmade;;;09000;FOIX;Foix;587017.7;6206987.8;EPSG:2154;42.95336473782514;1.6166896748678685;Parfaite;Numéro de rue;151;ECOLE DE NIVEAU ELEMENTAIRE;1;OUVERT;009;76;16;09122;Ariège;Occitanie;Toulouse;42.95336473782514,1.6166896748678685;99;SANS OBJET;06;MINISTERE DE L'EDUCATION NATIONALE;1968-12-02
0090244S;Ecole élémentaire;ECOLE ELEMENTAIRE PUBLIQUE;;Public;1 place de la mairie;;;09500;LAGARDE;Lagarde;613099.4;6217334.7;EPSG:2154;43.050045636946315;1.9342694070366064;Parfaite;Numéro de rue;151;ECOLE DE NIVEAU ELEMENTAIRE;1;OUVERT;009;76;16;09150;Ariège;Occitanie;Toulouse;43.050045636946315,1.9342694070366064;99;SANS OBJET;06;MINISTERE DE L'EDUCATION NATIONALE;1968-12-06
0090260J;Ecole élémentaire Groupe 1 Lamartine;ECOLE ELEMENTAIRE PUBLIQUE;GPE 1 LAMARTINE;Public;2 bis rue René Cassin;;;09300;LAVELANET;Lavelanet;605902.2;6204455.9;EPSG:2154;42.933324193828724;1.8483199878894485;Parfaite;Numéro de rue;151;ECOLE DE NIVEAU ELEMENTAIRE;1;OUVERT;009;76;16;09160;Ariège;Occitanie;Toulouse;42.933324193828724,1.8483199878894485;99;SANS OBJET;06;MINISTERE DE L'EDUCATION NATIONALE;1968-12-03
0090299B;Ecole primaire;ECOLE PRIMAIRE PUBLIQUE;;Public;Allée des Ecoles;MONTELS;;09320;MASSAT;Massat;564597.9;6200307.0;EPSG:2154;42.88941645312156;1.3439796793068064;Parfaite;Numéro de rue;151;ECOLE DE NIVEAU ELEMENTAIRE;1;OUVERT;009;76;16;09182;Ariège;Occitanie;Toulouse;42.88941645312156,1.3439796793068064;99;SANS OBJET;06;MINISTERE DE L'EDUCATION NATIONALE;1968-12-16
0090336S;Ecole maternelle;ECOLE MATERNELLE PUBLIQUE;;Public;5 route de Limoux;;;09500;MOULIN NEUF;Moulin-Neuf;613965.1;6220047.5;EPSG:2154;43.07454675443503;1.9444401864291414;Parfaite;Numéro de rue;101;ECOLE MATERNELLE;1;OUVERT;009;76;16;09213;Ariège;Occitanie;Toulouse;43.07454675443503,1.9444401864291414;99;SANS OBJET;06;MINISTERE DE L'EDUCATION NATIONALE;1968-12-06
0090352J;Ecole élémentaire Les Canonges;ECOLE ELEMENTAIRE PUBLIQUE;LES CANONGES;Public;3 chemin DE LA MOLE;;;09100;PAMIERS;Pamiers;588218.6;6224652.6;EPSG:2154;43.11240099612535;1.6276314632480122;Parfaite;Numéro de rue;151;ECOLE DE NIVEAU ELEMENTAIRE;1;OUVERT;009;76;16;09225;Ariège;Occitanie;Toulouse;43.11240099612535,1.6276314632480122;99;SANS OBJET;06;MINISTERE DE L'EDUCATION NATIONALE;1968-12-09
0090357P;Ecole élémentaire Henri Cazalé;ECOLE ELEMENTAIRE PUBLIQUE;HENRI CAZALE;Public;Avenue Irénée Cros;;;09100;PAMIERS;Pamiers;587014.6;6224523.3;EPSG:2154;43.11104899775566;1.6128805588266388;Parfaite;Numéro de rue;151;ECOLE DE NIVEAU ELEMENTAIRE;1;OUVERT;009;76;16;09225;Ariège;Occitanie;Toulouse;43.11104899775566,1.6128805588266388;99;SANS OBJET;06;MINISTERE DE L'EDUCATION NATIONALE;1968-12-09
0090384U;Ecole maternelle Charles Perrault;ECOLE MATERNELLE PUBLIQUE;CHARLES PERRAULT;Public;Rue des Ecoles;;;09700;SAVERDUN;Saverdun;584038.7;6238109.0;EPSG:2154;43.23275263300393;1.5733401400685874;Parfaite;Numéro de rue;101;ECOLE MATERNELLE;1;OUVERT;009;76;16;09282;Ariège;Occitanie;Toulouse;43.23275263300393,1.5733401400685874;99;SANS OBJET;06;MINISTERE DE L'EDUCATION NATIONALE;1968-12-11
0090386W;Ecole primaire;ECOLE PRIMAIRE;;Public;;LE VILLAGE;;09110;SAVIGNAC LES ORMEAUX;Savignac-les-Ormeaux;603104.1;6181791.2;EPSG:2154;42.729171317228385;1.8182298734825335;Correcte;Ville;151;ECOLE DE NIVEAU ELEMENTAIRE;1;OUVERT;009;76;16;09283;Ariège;Occitanie;Toulouse;42.729171317228385,1.8182298734825335;99;SANS OBJET;06;MINISTERE DE L'EDUCATION NATIONALE;1968-12-02
0090389Z;Ecole maternelle;ECOLE MATERNELLE PUBLIQUE;;Public;Rue Fons de Seix;;;09140;SEIX;Seix;552934.3;6197816.9;EPSG:2154;42.864735885966795;1.202070001174819;Parfaite;Numéro de rue;101;ECOLE MATERNELLE;1;OUVERT;009;76;16;09285;Ariège;Occitanie;Toulouse;42.864735885966795,1.202070001174819;99;SANS OBJET;06;MINISTERE DE L'EDUCATION NATIONALE;1968-12-17
0090408V;Ecole maternelle Le Pradelet;ECOLE MATERNELLE PUBLIQUE;LE PRADELET;Public;Rue Fontanelles;;;09400;TARASCON SUR ARIEGE;Tarascon-sur-Ariège;585998.2;6195367.3;EPSG:2154;42.848720347386724;1.6067200959078454;Parfaite;Numéro de rue;101;ECOLE MATERNELLE;1;OUVERT;009;76;16;09306;Ariège;Occitanie;Toulouse;42.848720347386724,1.6067200959078454;99;SANS OBJET;06;MINISTERE DE L'EDUCATION NATIONALE;1968-12-04
0090414B;Ecole élémentaire;ECOLE ELEMENTAIRE PUBLIQUE;;Public;12 chemin du Stade;;;09100;LA TOUR DU CRIEU;La Tour-du-Crieu;590528.6;6223584.1;EPSG:2154;43.10314935874192;1.6562096096658476;Parfaite;Numéro de rue;151;ECOLE DE NIVEAU ELEMENTAIRE;1;OUVERT;009;76;16;09312;Ariège;Occitanie;Toulouse;43.10314935874192,1.6562096096658476;99;SANS OBJET;06;MINISTERE DE L'EDUCATION NATIONALE;1968-12-09
0090446L;Ecole élémentaire;ECOLE ELEMENTAIRE PUBLIQUE;;Public;2 allées des Ecoliers;;;09120;ST FELIX DE RIEUTORD;Saint-Félix-de-Rieutord;591710.9;6217240.1;EPSG:2154;43.04627931799107;1.672029446919046;Parfaite;Numéro de rue;151;ECOLE DE NIVEAU ELEMENTAIRE;1;OUVERT;009;76;16;09258;Ariège;Occitanie;Toulouse;43.04627931799107,1.672029446919046;99;SANS OBJET;06;MINISTERE DE L'EDUCATION NATIONALE;1968-12-11
0090469L;Ecole élémentaire;ECOLE ELEMENTAIRE PUBLIQUE;;Public;Route de Pamiers;;;09100;ST MARTIN D OYDES;Saint-Martin-d'Oydes;577551.3;6231137.1;EPSG:2154;43.16896835126622;1.4951796053290691;Parfaite;Numéro de rue;151;ECOLE DE NIVEAU ELEMENTAIRE;1;OUVERT;009;76;16;09270;Ariège;Occitanie;Toulouse;43.16896835126622,1.4951796053290691;99;SANS OBJET;06;MINISTERE DE L'EDUCATION NATIONALE;1968-12-09
0090533F;Ecole primaire privée Notre-Dame;ECOLE PRIMAIRE PRIVEE;NOTRE-DAME;Privé;3 place des Cordeliers;;;09100;PAMIERS;Pamiers;587003.0;6225258.9;EPSG:2154;43.11766236784853;1.6125795120611732;Parfaite;Numéro de rue;151;ECOLE DE NIVEAU ELEMENTAIRE;1;OUVERT;009;76;16;09225;Ariège;Occitanie;Toulouse;43.11766236784853,1.6125795120611732;30;CONTRAT D'ASSOCIATION TOUTES CLASSES;06;MINISTERE DE L'EDUCATION NATIONALE;1971-02-01
0090536J;Ecole primaire privée Sacré Coeur;ECOLE PRIMAIRE PRIVEE;SACRE COEUR;Privé;3 place PASTEUR;;;09200;ST GIRONS;Saint-Girons;548615.3;6211265.1;EPSG:2154;42.98474313513394;1.1454270767751111;Parfaite;Numéro de rue;151;ECOLE DE NIVEAU ELEMENTAIRE;1;OUVERT;009;76;16;09261;Ariège;Occitanie;Toulouse;42.98474313513394,1.1454270767751111;30;CONTRAT D'ASSOCIATION TOUTES CLASSES;06;MINISTERE DE L'EDUCATION NATIONALE;1971-02-01
0090546V;Collège Sabarthès-Montcalm;COLLEGE;SABARTHES-MONTCALM;Public;Rue DE BERGA;;40143;09400;TARASCON SUR ARIEGE;Tarascon-sur-Ariège;585688.7;6194630.8;EPSG:2154;42.84204943876337;1.603097531764004;Correcte;Rue;340;COLLEGE;1;OUVERT;009;76;16;09306;Ariège;Occitanie;Toulouse;42.84204943876337,1.603097531764004;99;SANS OBJET;06;MINISTERE DE L'EDUCATION NATIONALE;1973-03-14
0090626G;Ecole élémentaire;ECOLE ELEMENTAIRE PUBLIQUE;ENFONTANGES;Public;Quartier Enfontanges;;;09110;AX LES THERMES;Ax-les-Thermes;604508.7;6181223.5;EPSG:2154;42.7242551785558;1.835460380022846;Parfaite;Numéro de rue;151;ECOLE DE NIVEAU ELEMENTAIRE;1;OUVERT;009;76;16;09032;Ariège;Occitanie;Toulouse;42.7242551785558,1.835460380022846;99;SANS OBJET;06;MINISTERE DE L'EDUCATION NATIONALE;1988-04-20
0090627H;Ecole primaire;ECOLE PRIMAIRE PUBLIQUE;;Public;;VILLAGE;;09400;MERCUS GARRABET;Mercus-Garrabet;587907.1;6198787.4;EPSG:2154;42.879770881501926;1.6293196093643065;Correcte;Ville;151;ECOLE DE NIVEAU ELEMENTAIRE;1;OUVERT;009;76;16;09188;Ariège;Occitanie;Toulouse;42.879770881501926,1.6293196093643065;99;SANS OBJET;06;MINISTERE DE L'EDUCATION NATIONALE;1988-09-01
0090633P;Ecole primaire privée Saint-Maurice;ECOLE PRIMAIRE PRIVEE;SAINT-MAURICE;Privé;2 rue du Maréchal Joffre;;;09500;MIREPOIX;Mirepoix;608395.9;6221881.2;EPSG:2154;43.090346293281044;1.8758004950680776;Parfaite;Numéro de rue;151;ECOLE DE NIVEAU ELEMENTAIRE;1;OUVERT;009;76;16;09194;Ariège;Occitanie;Toulouse;43.090346293281044,1.8758004950680776;30;CONTRAT D'ASSOCIATION TOUTES CLASSES;06;MINISTERE DE L'EDUCATION NATIONALE;1990-09-01
0090686X;Section d'enseignement général et technologique du lycée professionnel privé Les Jacobins;SECTION GEN ET TECHNOL.PRIVEE;LP PR LES JACOBINS;Privé;2 bis avenue DE LA PAIX;;;09100;PAMIERS;Pamiers;587431.6;6224215.3;EPSG:2154;43.10834494270783;1.6180651825436991;Parfaite;Numéro de rue;335;SECTION ENSEIGT GENERAL ET TECHNOLOGIQUE;1;OUVERT;009;76;16;09225;Ariège;Occitanie;Toulouse;43.10834494270783,1.6180651825436991;30;CONTRAT D'ASSOCIATION TOUTES CLASSES;06;MINISTERE DE L'EDUCATION NATIONALE;2013-09-01
0090688Z;Section d'ensignement général et technologique du lycée professionnel Jean Durroux;SECTION ENSEIGNT GEN.ET TECHNO;LP JEAN DURROUX;Public;1 avenue JEAN DURROUX;;;09000;FERRIERES SUR ARIEGE;Ferrières-sur-Ariège;587126.9;6206506.4;EPSG:2154;42.94905333041984;1.6181295408308458;Parfaite;Numéro de rue;335;SECTION ENSEIGT GENERAL ET TECHNOLOGIQUE;1;OUVERT;009;76;16;09121;Ariège;Occitanie;Toulouse;42.94905333041984,1.6181295408308458;99;SANS OBJET;06;MINISTERE DE L'EDUCATION NATIONALE;2014-01-01
0090703R;Lycée Général Privé Hors Contrat Pleine Nature;LYCEE GENERAL PRIVE HORS CONTRAT;PLEINE NATURE;Privé;Route de Montegut en Couserans;;;09200;MOULIS;Moulis;544448.9;6210952.2;EPSG:2154;42.98103787928134;1.0944976740600587;Mauvaise;Ville;302;LYCEE D ENSEIGNEMENT GENERAL;1;OUVERT;009;76;16;09214;Ariège;Occitanie;Toulouse;42.98103787928134,1.0944976740600587;10;HORS CONTRAT;06;MINISTERE DE L'EDUCATION NATIONALE;2018-09-01
0110052X;Collège privé Saint Joseph de Cluny;COLLEGE PRIVE;SAINT-JOSEPH DE CLUNY;Privé;26 avenue André Chénier;;97;11300;LIMOUX;Limoux;636508.0;6218128.6;EPSG:2154;43.05964430175055;2.2212294654458593;Parfaite;Numéro de rue;340;COLLEGE;1;OUVERT;011;76;11;11206;Aude;Occitanie;Montpellier;43.05964430175055,2.2212294654458593;30;CONTRAT D'ASSOCIATION TOUTES CLASSES;06;MINISTERE DE L'EDUCATION NATIONALE;1967-01-21
0110072U;Ecole élémentaire;ECOLE ELEMENTAIRE PUBLIQUE;;Public;2 place Hôtel de la Mairie;;;11240;ALAIGNE;Alaigne;626099.0;6223006.0;EPSG:2154;43.10251011777259;2.0928795342799744;Parfaite;Rue;151;ECOLE DE NIVEAU ELEMENTAIRE;1;OUVERT;011;76;11;11004;Aude;Occitanie;Montpellier;43.10251011777259,2.0928795342799744;99;SANS OBJET;06;MINISTERE DE L'EDUCATION NATIONALE;1967-09-05
0110109J;Ecole primaire;ECOLE PRIMAIRE PUBLIQUE;;Public;;LE BOURG;;11240;BELLEGARDE DU RAZES;Bellegarde-du-Razès;622194.9;6223757.4;EPSG:2154;43.10885386924847;2.044850457654099;Parfaite;Numéro de rue;151;ECOLE DE NIVEAU ELEMENTAIRE;1;OUVERT;011;76;11;11032;Aude;Occitanie;Montpellier;43.10885386924847,2.044850457654099;99;SANS OBJET;06;MINISTERE DE L'EDUCATION NATIONALE;1967-09-01
0110120W;Ecole élémentaire;ECOLE ELEMENTAIRE PUBLIQUE;;Public;4 rue des Ecoles;;;11700;BLOMAC;Blomac;667299.3;6233904.5;EPSG:2154;43.203607115794355;2.5979098051162417;Parfaite;Numéro de rue;151;ECOLE DE NIVEAU ELEMENTAIRE;1;OUVERT;011;76;11;11042;Aude;Occitanie;Montpellier;43.203607115794355,2.5979098051162417;99;SANS OBJET;06;MINISTERE DE L'EDUCATION NATIONALE;1968-01-19
0110127D;Ecole élémentaire Marie-Jeanne Estevenon;ECOLE ELEMENTAIRE PUBLIQUE;MARIE-JEANNE ESTEVENON;Public;1  RUE JEAN BART;;;11150;BRAM;Bram;627689.7;6238431.4;EPSG:2154;43.24141148533963;2.1102700119191184;Parfaite;Numéro de rue;151;ECOLE DE NIVEAU ELEMENTAIRE;1;OUVERT;011;76;11;11049;Aude;Occitanie;Montpellier;43.24141148533963,2.1102700119191184;99;SANS OBJET;06;MINISTERE DE L'EDUCATION NATIONALE;1968-01-26
0110129F;Ecole maternelle;ECOLE MATERNELLE PUBLIQUE;;Public;5 rue des Etudes;;;11150;BRAM;Bram;627912.0;6238394.5;EPSG:2154;43.241102078016446;2.1130101345622143;Parfaite;Numéro de rue;101;ECOLE MATERNELLE;1;OUVERT;011;76;11;11049;Aude;Occitanie;Montpellier;43.241102078016446,2.1130101345622143;99;SANS OBJET;06;MINISTERE DE L'EDUCATION NATIONALE;1968-01-30
0110147A;Ecole primaire du RPI Canet, Raissac, Villedaigne;ECOLE PRIMAIRE;RPI CANET-RAISSAC-VILLEDAIGNE;Public;40 route de Raissac;;;11200;CANET;Canet;688372.7;6236514.7;EPSG:2154;43.22774023041323;2.8569706543845523;Correcte;Rue;151;ECOLE DE NIVEAU ELEMENTAIRE;1;OUVERT;011;76;11;11067;Aude;Occitanie;Montpellier;43.22774023041323,2.8569706543845523;99;SANS OBJET;06;MINISTERE DE L'EDUCATION NATIONALE;1968-01-24
0110149C;Ecole élémentaire;ECOLE ELEMENTAIRE PUBLIQUE;;Public;Rue Jules Ferry;;;11700;CAPENDU;Capendu;664060.3;6232069.9;EPSG:2154;43.18694959338218;2.5582098299442397;Parfaite;Numéro de rue;151;ECOLE DE NIVEAU ELEMENTAIRE;1;OUVERT;011;76;11;11068;Aude;Occitanie;Montpellier;43.18694959338218,2.5582098299442397;99;SANS OBJET;06;MINISTERE DE L'EDUCATION NATIONALE;1968-01-19
0110151E;Ecole élémentaire Isly;ECOLE ELEMENTAIRE PUBLIQUE;ISLY;Public;23 rue d'Isly;;;11000;CARCASSONNE;Carcassonne;646310.3;6234952.9;EPSG:2154;43.211767257005995;2.3397294140937444;Parfaite;Numéro de rue;151;ECOLE DE NIVEAU ELEMENTAIRE;1;OUVERT;011;76;11;11069;Aude;Occitanie;Montpellier;43.211767257005995,2.3397294140937444;99;SANS OBJET;06;MINISTERE DE L'EDUCATION NATIONALE;1968-01-29
0110181M;Ecole maternelle les Castors;ECOLE MATERNELLE PUBLIQUE;LES CASTORS;Public;50 boulevard Paul Langevin;;;11000;CARCASSONNE;Carcassonne;646294.5;6236261.2;EPSG:2154;43.22353391893574;2.3394005161300355;Parfaite;Numéro de rue;101;ECOLE MATERNELLE;1;OUVERT;011;76;11;11069;Aude;Occitanie;Montpellier;43.22353391893574,2.3394005161300355;99;SANS OBJET;06;MINISTERE DE L'EDUCATION NATIONALE;1968-01-30
0110186T;Ecole maternelle Jean Macé;ECOLE MATERNELLE PUBLIQUE;JEAN MACE;Public;1 rue DIEUDONNE COSTES;;;11000;CARCASSONNE;Carcassonne;649593.4;6234148.9;EPSG:2154;43.20477487554127;2.380180549255267;Parfaite;Numéro de rue;101;ECOLE MATERNELLE;1;OUVERT;011;76;11;11069;Aude;Occitanie;Montpellier;43.20477487554127,2.380180549255267;99;SANS OBJET;06;MINISTERE DE L'EDUCATION NATIONALE;1968-01-30
0110190X;Ecole primaire Jean Beaubois;ECOLE PRIMAIRE PUBLIQUE;JEAN BEAUBOIS;Public;7 rue du Sabladou;HAMEAU DE MONTLEGUN;;11000;CARCASSONNE;Carcassonne;650784.2;6233775.2;EPSG:2154;43.201496636461606;2.394857730938186;Parfaite;Numéro de rue;151;ECOLE DE NIVEAU ELEMENTAIRE;1;OUVERT;011;76;11;11069;Aude;Occitanie;Montpellier;43.201496636461606,2.394857730938186;99;SANS OBJET;06;MINISTERE DE L'EDUCATION NATIONALE;1968-01-29
0110205N;Ecole maternelle Jean Moulin;ECOLE MATERNELLE PUBLIQUE;JEAN MOULIN;Public;Avenue du Maréchal Juin;;;11400;CASTELNAUDARY;Castelnaudary;614245.1;6247065.0;EPSG:2154;43.31757887762377;1.9434400145360007;Parfaite;Numéro de rue;101;ECOLE MATERNELLE;1;OUVERT;011;76;11;11076;Aude;Occitanie;Montpellier;43.31757887762377,1.9434400145360007;99;SANS OBJET;06;MINISTERE DE L'EDUCATION NATIONALE;1968-01-30
0110211V;Ecole élémentaire;ECOLE ELEMENTAIRE PUBLIQUE;;Public;Rue de l'Ecole;;;11300;CASTELRENG;Castelreng;629713.1;6214855.7;EPSG:2154;43.0295753007962;2.138329964891886;Correcte;Ville;151;ECOLE DE NIVEAU ELEMENTAIRE;1;OUVERT;011;76;11;11078;Aude;Occitanie;Montpellier;43.0295753007962,2.138329964891886;99;SANS OBJET;06;MINISTERE DE L'EDUCATION NATIONALE;1968-01-16
0110239A;Ecole primaire;ECOLE PRIMAIRE PUBLIQUE;;Public;2 place Jean Moulin;;;11250;COUFFOULENS;Couffoulens;643510.7;6228775.2;EPSG:2154;43.15598596077042;2.3059696781495003;Parfaite;Numéro de rue;151;ECOLE DE NIVEAU ELEMENTAIRE;1;OUVERT;011;76;11;11102;Aude;Occitanie;Montpellier;43.15598596077042,2.3059696781495003;99;SANS OBJET;06;MINISTERE DE L'EDUCATION NATIONALE;1968-01-29
0110244F;Ecole maternelle;ECOLE MATERNELLE PUBLIQUE;;Public;Rue des Ecoles;;;11190;COUIZA;Couiza;639071.2;6204894.0;EPSG:2154;42.94084761152966;2.2542000309139154;Parfaite;Numéro de rue;101;ECOLE MATERNELLE;1;OUVERT;011;76;11;11103;Aude;Occitanie;Montpellier;42.94084761152966,2.2542000309139154;99;SANS OBJET;06;MINISTERE DE L'EDUCATION NATIONALE;1968-01-30
0110308A;Ecole maternelle;ECOLE MATERNELLE PUBLIQUE;;Public;1 place de la Mairie;;;11270;GAJA LA SELVE;Gaja-la-Selve;610233.4;6233470.2;EPSG:2154;43.19480668933992;1.8963603064187255;Parfaite;Numéro de rue;101;ECOLE MATERNELLE;1;OUVERT;011;76;11;11159;Aude;Occitanie;Montpellier;43.19480668933992,1.8963603064187255;99;SANS OBJET;06;MINISTERE DE L'EDUCATION NATIONALE;1968-01-26
0110321P;Ecole maternelle;ECOLE MATERNELLE PUBLIQUE;;Public;Rue Réné Gimie;;;11430;GRUISSAN;Gruissan;707116.0;6222896.7;EPSG:2154;43.10530962974778;3.0873498450420658;Parfaite;Numéro de rue;101;ECOLE MATERNELLE;1;OUVERT;011;76;11;11170;Aude;Occitanie;Montpellier;43.10530962974778,3.0873498450420658;99;SANS OBJET;06;MINISTERE DE L'EDUCATION NATIONALE;1968-01-30
0110330Z;Ecole primaire;ECOLE ELEMENTAIRE PUBLIQUE;;Public;4 chemin  de Pisseby;;;11400;LABECEDE LAURAGAIS;Labécède-Lauragais;618915.5;6255118.6;EPSG:2154;43.39057040262457;1.9997193570890837;Correcte;Rue;151;ECOLE DE NIVEAU ELEMENTAIRE;1;OUVERT;011;76;11;11181;Aude;Occitanie;Montpellier;43.39057040262457,1.9997193570890837;99;SANS OBJET;06;MINISTERE DE L'EDUCATION NATIONALE;1968-01-26
0110343N;Ecole primaire;ECOLE PRIMAIRE PUBLIQUE;;Public;1 rue des Ecoles;;;11400;LASBORDES;Lasbordes;622725.1;6244226.5;EPSG:2154;43.29301666668925;2.0483303048768233;Parfaite;Numéro de rue;151;ECOLE DE NIVEAU ELEMENTAIRE;1;OUVERT;011;76;11;11192;Aude;Occitanie;Montpellier;43.29301666668925,2.0483303048768233;99;SANS OBJET;06;MINISTERE DE L'EDUCATION NATIONALE;1968-01-27
0110352Y;Ecole primaire;ECOLE PRIMAIRE PUBLIQUE;;Public;Chemin de la Fontvieille;;;11290;LAVALETTE;Lavalette;640227.2;6232104.9;EPSG:2154;43.18566732250609;2.26525005076333;Parfaite;Numéro de rue;151;ECOLE DE NIVEAU ELEMENTAIRE;1;OUVERT;011;76;11;11199;Aude;Occitanie;Montpellier;43.18566732250609,2.26525005076333;99;SANS OBJET;06;MINISTERE DE L'EDUCATION NATIONALE;1968-01-24
0110359F;Ecole maternelle Alphonse Daudet;ECOLE MATERNELLE PUBLIQUE;ALPHONSE DAUDET;Public;Rue Victor Duruy;;;11200;LEZIGNAN CORBIERES;Lézignan-Corbières;680469.2;6233262.5;EPSG:2154;43.198314137817576;2.759870528263246;Parfaite;Numéro de rue;101;ECOLE MATERNELLE;1;OUVERT;011;76;11;11203;Aude;Occitanie;Montpellier;43.198314137817576,2.759870528263246;99;SANS OBJET;06;MINISTERE DE L'EDUCATION NATIONALE;1968-01-30
0110370T;Ecole primaire;ECOLE PRIMAIRE PUBLIQUE;;Public;9 rue des Ecoles;;;11300;LOUPIA;Loupia;627725.8;6218624.9;EPSG:2154;43.06327484190008;2.1134502478642974;Parfaite;Numéro de rue;151;ECOLE DE NIVEAU ELEMENTAIRE;1;OUVERT;011;76;11;11207;Aude;Occitanie;Montpellier;43.06327484190008,2.1134502478642974;99;SANS OBJET;06;MINISTERE DE L'EDUCATION NATIONALE;1968-01-16
0110378B;Ecole primaire;ECOLE PRIMAIRE;;Public;8 rue Haute;;;11300;MALRAS;Malras;632682.3;6218427.4;EPSG:2154;43.06198197047069;2.174269774530836;Parfaite;Numéro de rue;151;ECOLE DE NIVEAU ELEMENTAIRE;1;OUVERT;011;76;11;11214;Aude;Occitanie;Montpellier;43.06198197047069,2.174269774530836;99;SANS OBJET;06;MINISTERE DE L'EDUCATION NATIONALE;1968-01-16
0110379C;Ecole primaire publique Pierre Perret;ECOLE PRIMAIRE PUBLIQUE;PIERRE PERRET;Public;Avenue du Château;;;11600;MALVES EN MINERVOIS;Malves-en-Minervois;654615.2;6239537.2;EPSG:2154;43.25357920772802;2.4414597544207197;Parfaite;Numéro de rue;151;ECOLE DE NIVEAU ELEMENTAIRE;1;OUVERT;011;76;11;11215;Aude;Occitanie;Montpellier;43.25357920772802,2.4414597544207197;99;SANS OBJET;06;MINISTERE DE L'EDUCATION NATIONALE;1968-01-25
0110387L;Ecole élémentaire;ECOLE ELEMENTAIRE PUBLIQUE;;Public;4 avenue du Théron;;;11380;MAS CABARDES;Mas-Cabardès;648524.2;6252600.3;EPSG:2154;43.37067415752061;2.3652098768468743;Parfaite;Rue;151;ECOLE DE NIVEAU ELEMENTAIRE;1;OUVERT;011;76;11;11222;Aude;Occitanie;Montpellier;43.37067415752061,2.3652098768468743;99;SANS OBJET;06;MINISTERE DE L'EDUCATION NATIONALE;1968-01-26
0110396W;Ecole élémentaire;ECOLE ELEMENTAIRE PUBLIQUE;;Public;28 rue de la Mairie;;;11580;MISSEGRE;Missègre;648787.6;6211766.6;EPSG:2154;43.003412086048094;2.3724597584826284;Parfaite;Numéro de rue;151;ECOLE DE NIVEAU ELEMENTAIRE;1;OUVERT;011;76;11;11235;Aude;Occitanie;Montpellier;43.003412086048094,2.3724597584826284;99;SANS OBJET;06;MINISTERE DE L'EDUCATION NATIONALE;1968-01-15
0110413P;Ecole primaire;ECOLE PRIMAIRE PUBLIQUE;;Public;2 rue de la Mairie;;;11170;MONTOLIEU;Montolieu;636257.2;6245953.1;EPSG:2154;43.30988646790593;2.2147596481094847;Parfaite;Numéro de rue;151;ECOLE DE NIVEAU ELEMENTAIRE;1;OUVERT;011;76;11;11253;Aude;Occitanie;Montpellier;43.30988646790593,2.2147596481094847;99;SANS OBJET;06;MINISTERE DE L'EDUCATION NATIONALE;1968-01-26
0110417U;Ecole primaire;ECOLE PRIMAIRE PUBLIQUE;;Public;Rue du Professeur Vires;;;11100;MONTREDON DES CORBIERES;Montredon-des-Corbières;693862.4;6232277.3;EPSG:2154;43.1896931015632;2.924550111202301;Correcte;Rue;151;ECOLE DE NIVEAU ELEMENTAIRE;1;OUVERT;011;76;11;11255;Aude;Occitanie;Montpellier;43.1896931015632,2.924550111202301;99;SANS OBJET;06;MINISTERE DE L'EDUCATION NATIONALE;1968-01-24
0110441V;Ecole maternelle Suzanne Buisson;ECOLE MATERNELLE PUBLIQUE;SUZANNE BUISSON;Public;5 rue Armand Carrel;;;11100;NARBONNE;Narbonne;701180.4;6232171.3;EPSG:2154;43.18876504491117;3.0145104935394493;Parfaite;Numéro de rue;101;ECOLE MATERNELLE;1;OUVERT;011;76;11;11262;Aude;Occitanie;Montpellier;43.18876504491117,3.0145104935394493;99;SANS OBJET;06;MINISTERE DE L'EDUCATION NATIONALE;1968-01-30
0110444Y;Ecole maternelle Fabre d'Eglantine;ECOLE MATERNELLE PUBLIQUE;FABRE D'EGLANTINE;Public;27 rue Fabre d'Eglantine;;;11100;NARBONNE;Narbonne;700925.0;6231549.0;EPSG:2154;43.183167926129734;3.011369795299093;Parfaite;Numéro de rue;101;ECOLE MATERNELLE;1;OUVERT;011;76;11;11262;Aude;Occitanie;Montpellier;43.183167926129734,3.011369795299093;99;SANS OBJET;06;MINISTERE DE L'EDUCATION NATIONALE;1968-01-30
0110448C;Ecole maternelle Paul Bert;ECOLE MATERNELLE PUBLIQUE;PAUL BERT;Public;3 rue de la Berre;;;11100;NARBONNE;Narbonne;698820.4;6231981.3;EPSG:2154;43.18705602202439;2.9854997696540755;Parfaite;Numéro de rue;101;ECOLE MATERNELLE;1;OUVERT;011;76;11;11262;Aude;Occitanie;Montpellier;43.18705602202439,2.9854997696540755;99;SANS OBJET;06;MINISTERE DE L'EDUCATION NATIONALE;1968-01-30
0110449D;Ecole primaire Gaston Bonheur;ECOLE PRIMAIRE PUBLIQUE;GASTON BONHEUR;Public;9 chemin Fontaine de Verre;NARBONNE-PLAGE;;11100;NARBONNE;Narbonne;713538.1;6229378.0;EPSG:2154;43.163512637097305;3.1663494031685357;Parfaite;Numéro de rue;151;ECOLE DE NIVEAU ELEMENTAIRE;1;OUVERT;011;76;11;11262;Aude;Occitanie;Montpellier;43.163512637097305,3.1663494031685357;99;SANS OBJET;06;MINISTERE DE L'EDUCATION NATIONALE;1968-01-24
0110466X;Ecole élémentaire;ECOLE ELEMENTAIRE PUBLIQUE;;Public;Rue Barri del Pont;;;11570;PALAJA;Palaja;649746.1;6230909.9;EPSG:2154;43.17565211258966;2.38236965332969;Parfaite;Numéro de rue;151;ECOLE DE NIVEAU ELEMENTAIRE;1;OUVERT;011;76;11;11272;Aude;Occitanie;Montpellier;43.17565211258966,2.38236965332969;99;SANS OBJET;06;MINISTERE DE L'EDUCATION NATIONALE;1968-01-29
0110470B;Ecole primaire;ECOLE PRIMAIRE PUBLIQUE;;Public;5 rue du Verdouble;;;11350;PAZIOLS;Paziols;677015.1;6195606.5;EPSG:2154;42.85954803730192;2.719050278702814;Parfaite;Numéro de rue;151;ECOLE DE NIVEAU ELEMENTAIRE;1;OUVERT;011;76;11;11276;Aude;Occitanie;Montpellier;42.85954803730192,2.719050278702814;99;SANS OBJET;06;MINISTERE DE L'EDUCATION NATIONALE;1968-01-20
0110489X;Ecole primaire;ECOLE PRIMAIRE PUBLIQUE;;Public;Rue de la Mairie;;;11250;POMAS;Pomas;642223.1;6223890.0;EPSG:2154;43.11194500620606;2.2906901391181997;Parfaite;Numéro de rue;151;ECOLE DE NIVEAU ELEMENTAIRE;1;OUVERT;011;76;11;11293;Aude;Occitanie;Montpellier;43.11194500620606,2.2906901391181997;99;SANS OBJET;06;MINISTERE DE L'EDUCATION NATIONALE;1968-01-15
0110531T;Ecole maternelle;ECOLE MATERNELLE PUBLIQUE;;Public;Avenue des Ecoles;;;11200;ROUBIA;Roubia;683645.3;6238710.9;EPSG:2154;43.247402787995135;2.798749483647979;Parfaite;Rue;101;ECOLE MATERNELLE;1;OUVERT;011;76;11;11324;Aude;Occitanie;Montpellier;43.247402787995135,2.798749483647979;99;SANS OBJET;06;MINISTERE DE L'EDUCATION NATIONALE;1968-01-24
0110532U;Ecole élémentaire Jean Blanc;ECOLE ELEMENTAIRE PUBLIQUE;JEAN BLANC;Public;Allée des Marronniers;;;11250;ROUFFIAC D AUDE;Rouffiac-d'Aude;642762.9;6225692.9;EPSG:2154;43.12820371477312;2.297119735482795;Parfaite;Numéro de rue;151;ECOLE DE NIVEAU ELEMENTAIRE;1;OUVERT;011;76;11;11325;Aude;Occitanie;Montpellier;43.12820371477312,2.297119735482795;99;SANS OBJET;06;MINISTERE DE L'EDUCATION NATIONALE;1968-01-24
0110537Z;Ecole primaire J. Hudelle;ECOLE PRIMAIRE PUBLIQUE;J. HUDELLE;Public;13 chemin de la Pège;;;11800;RUSTIQUES;Rustiques;657091.9;6235348.8;EPSG:2154;43.2160578301611;2.4722834759474397;Parfaite;Numéro de rue;151;ECOLE DE NIVEAU ELEMENTAIRE;1;OUVERT;011;76;11;11330;Aude;Occitanie;Montpellier;43.2160578301611,2.4722834759474397;99;SANS OBJET;06;MINISTERE DE L'EDUCATION NATIONALE;1968-01-26
0110539B;Ecole primaire;ECOLE PRIMAIRE PUBLIQUE;;Public;Rue du Poids Public;;;11200;ST ANDRE DE ROQUELONGUE;Saint-André-de-Roquelongue;686875.8;6224029.4;EPSG:2154;43.11541242843217;2.838870487557897;Parfaite;Numéro de rue;151;ECOLE DE NIVEAU ELEMENTAIRE;1;OUVERT;011;76;11;11332;Aude;Occitanie;Montpellier;43.11541242843217,2.838870487557897;99;SANS OBJET;06;MINISTERE DE L'EDUCATION NATIONALE;1968-01-18
0110541D;Ecole primaire;ECOLE PRIMAIRE PUBLIQUE;;Public;6 rue des Etudes;;;11230;ST BENOIT;Saint-Benoît;623540.8;6213470.6;EPSG:2154;43.01648675486303;2.0628700601051233;Parfaite;Numéro de rue;151;ECOLE DE NIVEAU ELEMENTAIRE;1;OUVERT;011;76;11;11333;Aude;Occitanie;Montpellier;43.01648675486303,2.0628700601051233;99;SANS OBJET;06;MINISTERE DE L'EDUCATION NATIONALE;1967-09-28
0110550N;Ecole élémentaire;ECOLE ELEMENTAIRE PUBLIQUE;;Public;5 avenue des Ecoles;;;11800;ST FRICHOUX;Saint-Frichoux;663520.9;6239359.5;EPSG:2154;43.252491820050324;2.5510699294461983;Parfaite;Numéro de rue;151;ECOLE DE NIVEAU ELEMENTAIRE;1;OUVERT;011;76;11;11342;Aude;Occitanie;Montpellier;43.252491820050324,2.5510699294461983;99;SANS OBJET;06;MINISTERE DE L'EDUCATION NATIONALE;1968-01-17
0110605Y;Ecole primaire;ECOLE PRIMAIRE PUBLIQUE;;Public;75 grand'rue;;;11360;VILLESEQUE DES CORBIERES;Villesèque-des-Corbières;687556.1;6212774.9;EPSG:2154;43.01420237480778;2.8474895758306706;Parfaite;Numéro de rue;151;ECOLE DE NIVEAU ELEMENTAIRE;1;OUVERT;011;76;11;11436;Aude;Occitanie;Montpellier;43.01420237480778,2.8474895758306706;99;SANS OBJET;06;MINISTERE DE L'EDUCATION NATIONALE;1968-01-23
0110608B;Ecole élémentaire;ECOLE ELEMENTAIRE PUBLIQUE;;Public;Place de l'Ecole;;;11170;VILLESPY;Villespy;626777.4;6247150.4;EPSG:2154;43.31974531118789;2.0978200552068396;Parfaite;Numéro de rue;151;ECOLE DE NIVEAU ELEMENTAIRE;1;OUVERT;011;76;11;11439;Aude;Occitanie;Montpellier;43.31974531118789,2.0978200552068396;99;SANS OBJET;06;MINISTERE DE L'EDUCATION NATIONALE;1968-01-26
0110618M;Ecole maternelle Raymond Courriere;ECOLE MATERNELLE PUBLIQUE;RAYMOND COURRIERE;Public;6 rue Paul Riquet;;;11590;SALLELES D AUDE;Sallèles-d'Aude;695688.9;6239892.4;EPSG:2154;43.25820521784933;2.946940474230808;Parfaite;Numéro de rue;101;ECOLE MATERNELLE;1;OUVERT;011;76;11;11369;Aude;Occitanie;Montpellier;43.25820521784933,2.946940474230808;99;SANS OBJET;06;MINISTERE DE L'EDUCATION NATIONALE;1968-01-30
0110648V;Ecole élémentaire Les Floralies;ECOLE ELEMENTAIRE PUBLIQUE;LES FLORALIES;Public;Rue des Listans;;;11800;TREBES;Trèbes;655130.1;6234723.8;EPSG:2154;43.21031543418103;2.448210246345021;Parfaite;Numéro de rue;151;ECOLE DE NIVEAU ELEMENTAIRE;1;OUVERT;011;76;11;11397;Aude;Occitanie;Montpellier;43.21031543418103,2.448210246345021;99;SANS OBJET;06;MINISTERE DE L'EDUCATION NATIONALE;1968-01-26
0110652Z;Ecole élémentaire;ECOLE ELEMENTAIRE PUBLIQUE;;Public;9 rue de la Mairie;;;11510;TREILLES;Treilles;695448.1;6202674.4;EPSG:2154;42.9234600909229;2.944299911858949;Parfaite;Numéro de rue;151;ECOLE DE NIVEAU ELEMENTAIRE;1;OUVERT;011;76;11;11398;Aude;Occitanie;Montpellier;42.9234600909229,2.944299911858949;99;SANS OBJET;06;MINISTERE DE L'EDUCATION NATIONALE;1968-01-22
0110666P;Collège Le Bastion;COLLEGE;LE BASTION;Public;24  BOULEVARD DE VARSOVIE;;;11000;CARCASSONNE;Carcassonne;647060.3;6235466.8;EPSG:2154;43.216445674713256;2.3489003077811836;Parfaite;Numéro de rue;340;COLLEGE;1;OUVERT;011;76;11;11069;Aude;Occitanie;Montpellier;43.216445674713256,2.3489003077811836;99;SANS OBJET;06;MINISTERE DE L'EDUCATION NATIONALE;1968-04-11
0110667R;Collège Pierre et Marie Curie;COLLEGE;PIERRE ET MARIE CURIE;Public;AVENUE GEORGES CLEMENCEAU;;;11160;RIEUX MINERVOIS;Rieux-Minervois;665995.3;6242585.7;EPSG:2154;43.281634726490395;2.5813100234662194;Parfaite;Numéro de rue;340;COLLEGE;1;OUVERT;011;76;11;11315;Aude;Occitanie;Montpellier;43.281634726490395,2.5813100234662194;99;SANS OBJET;06;MINISTERE DE L'EDUCATION NATIONALE;1971-02-17
0110710M;Lycée professionnel agricole de Narbonne;LYCEE PROFESSIONNEL AGRICOLE;DE NARBONNE;Public;Voie de l'étang;;7205;11782;NARBONNE CEDEX;Narbonne;699403.7;6228348.4;EPSG:2154;43.15437976003177;2.9926741266957717;Moyenne;Rue;320;LYCEE PROFESSIONNEL;1;OUVERT;011;76;11;11262;Aude;Occitanie;Montpellier;43.15437976003177,2.9926741266957717;99;SANS OBJET;03;AGRICULTURE;1969-08-25
0110715T;Ecole maternelle;ECOLE MATERNELLE PUBLIQUE;;Public;Rue Jules Ferry;;;11700;CAPENDU;Capendu;663974.1;6232070.0;EPSG:2154;43.18694614960094;2.5571502283661567;Parfaite;Numéro de rue;101;ECOLE MATERNELLE;1;OUVERT;011;76;11;11068;Aude;Occitanie;Montpellier;43.18694614960094,2.5571502283661567;99;SANS OBJET;06;MINISTERE DE L'EDUCATION NATIONALE;1969-11-18
0110716U;Ecole maternelle Marcelin Berthelot;ECOLE MATERNELLE PUBLIQUE;MARCELLIN BERTHELOT;Public;37 bis rue Frédéric Soulié;;;11000;CARCASSONNE;Carcassonne;647183.8;6236052.4;EPSG:2154;43.22172217022208;2.3503598995508463;Parfaite;Numéro de rue;101;ECOLE MATERNELLE;1;OUVERT;011;76;11;11069;Aude;Occitanie;Montpellier;43.22172217022208,2.3503598995508463;99;SANS OBJET;06;MINISTERE DE L'EDUCATION NATIONALE;1969-11-18
0110720Y;Ecole élémentaire Albert Calmette;ECOLE ELEMENTAIRE PUBLIQUE;ALBERT CALMETTE;Public;Impasse Picaussel;;;11500;QUILLAN;Quillan;632538.3;6197862.3;EPSG:2154;42.877032219091404;2.175138596587775;Moyenne;Rue;151;ECOLE DE NIVEAU ELEMENTAIRE;1;OUVERT;011;76;11;11304;Aude;Occitanie;Montpellier;42.877032219091404,2.175138596587775;99;SANS OBJET;06;MINISTERE DE L'EDUCATION NATIONALE;1969-11-18
0110721Z;Collège Antoine Courrière;COLLEGE;ANTOINE COURRIERE;Public;;BERTRANDE;;11390;CUXAC CABARDES;Cuxac-Cabardès;640454.1;6251691.7;EPSG:2154;43.36187125962498;2.2658004110177257;Parfaite;Numéro de rue;340;COLLEGE;1;OUVERT;011;76;11;11115;Aude;Occitanie;Montpellier;43.36187125962498,2.2658004110177257;99;SANS OBJET;06;MINISTERE DE L'EDUCATION NATIONALE;1970-02-09
0110772E;Ecole primaire privée Jeanne d'Arc;ECOLE PRIMAIRE PRIVEE;JEANNE D ARC;Privé;47 rue de la Baffe;;;11400;CASTELNAUDARY;Castelnaudary;615398.2;6246855.0;EPSG:2154;43.315827788313854;1.957679498109341;Parfaite;Numéro de rue;151;ECOLE DE NIVEAU ELEMENTAIRE;1;OUVERT;011;76;11;11076;Aude;Occitanie;Montpellier;43.315827788313854,1.957679498109341;30;CONTRAT D'ASSOCIATION TOUTES CLASSES;06;MINISTERE DE L'EDUCATION NATIONALE;1971-03-15
0110781P;Ecole élémentaire Jean Jaurès;ECOLE ELEMENTAIRE PUBLIQUE;JEAN JAURES;Public;16 boulevard Jean Jaurès;;;11000;CARCASSONNE;Carcassonne;647624.6;6235079.4;EPSG:2154;43.21300273593227;2.3558791287629095;Parfaite;Numéro de rue;151;ECOLE DE NIVEAU ELEMENTAIRE;1;OUVERT;011;76;11;11069;Aude;Occitanie;Montpellier;43.21300273593227,2.3558791287629095;99;SANS OBJET;06;MINISTERE DE L'EDUCATION NATIONALE;1971-06-17
0110795E;Ecole primaire;ECOLE PRIMAIRE PUBLIQUE;;Public;Avenue de Marcorignan;;;11200;NEVIAN;Névian;692333.7;6234846.7;EPSG:2154;43.21278996261672;2.9057200125857214;Parfaite;Numéro de rue;151;ECOLE DE NIVEAU ELEMENTAIRE;1;OUVERT;011;76;11;11264;Aude;Occitanie;Montpellier;43.21278996261672,2.9057200125857214;99;SANS OBJET;06;MINISTERE DE L'EDUCATION NATIONALE;1972-06-15
0110796F;Ecole élémentaire Henri Huon;ECOLE ELEMENTAIRE PUBLIQUE;HENRI HUON;Public;1 AVENUE DU MINERVOIS;;;11610;PENNAUTIER;Pennautier;644983.4;6238575.3;EPSG:2154;43.24424906818732;2.3230302057125876;Parfaite;Numéro de rue;151;ECOLE DE NIVEAU ELEMENTAIRE;1;OUVERT;011;76;11;11279;Aude;Occitanie;Montpellier;43.24424906818732,2.3230302057125876;99;SANS OBJET;06;MINISTERE DE L'EDUCATION NATIONALE;1972-06-15
0110823K;Lycée professionnel Charles Cros, lycée des métiers de la commercialisation et de l'hôtellerie restauration;LP LYCEE DES METIERS;CHARLES CROS;Public;1 rue MICHEL VERGES;;1055;11870;CARCASSONNE CEDEX 9;Carcassonne;646436.8;6236757.3;EPSG:2154;43.22800694556813;2.3410998639073117;Parfaite;Numéro de rue;320;LYCEE PROFESSIONNEL;1;OUVERT;011;76;11;11069;Aude;Occitanie;Montpellier;43.22800694556813,2.3410998639073117;99;SANS OBJET;06;MINISTERE DE L'EDUCATION NATIONALE;1974-04-06
0110826N;Ecole primaire;ECOLE PRIMAIRE PUBLIQUE;;Public;10 BOULEVARD DE LA PROMENADE;;;11220;LAGRASSE;Lagrasse;669081.9;6221353.2;EPSG:2154;43.09079435659028;2.620570025113609;Parfaite;Numéro de rue;151;ECOLE DE NIVEAU ELEMENTAIRE;1;OUVERT;011;76;11;11185;Aude;Occitanie;Montpellier;43.09079435659028,2.620570025113609;99;SANS OBJET;06;MINISTERE DE L'EDUCATION NATIONALE;1974-05-10
0110840D;Ecole secondaire privée La Clarté-Dieu;ECOLE 2D DEGRE GENERAL PRIVEE;LA CLARTE-DIEU;Privé;;ST-DOMINIQUE DU CAMMAZOU;;11270;FANJEAUX;Fanjeaux;622702.3;6233428.6;EPSG:2154;43.1958912151168;2.049649942994373;Parfaite;Rue;302;LYCEE D ENSEIGNEMENT GENERAL;1;OUVERT;011;76;11;11136;Aude;Occitanie;Montpellier;43.1958912151168,2.049649942994373;10;HORS CONTRAT;06;MINISTERE DE L'EDUCATION NATIONALE;1975-09-24
0110850P;Ecole primaire;ECOLE PRIMAIRE PUBLIQUE;;Public;3 place de la République;;;11350;TUCHAN;Tuchan;676980.9;6198857.1;EPSG:2154;42.888777641539754;2.7184905966965425;Parfaite;Numéro de rue;151;ECOLE DE NIVEAU ELEMENTAIRE;1;OUVERT;011;76;11;11401;Aude;Occitanie;Montpellier;42.888777641539754,2.7184905966965425;99;SANS OBJET;06;MINISTERE DE L'EDUCATION NATIONALE;1976-05-12
0110857X;Lycée agricole privé Emile de Rodat de Pezens;LYCEE AGRICOLE PRIVE;E. DE RODAT - PEZENS;Privé;8 boulevard de pins;;16;11170;PEZENS;Pezens;640275.1;6239926.1;EPSG:2154;43.25602077505471;2.2649438762045677;Parfaite;Numéro de rue;320;LYCEE PROFESSIONNEL;1;OUVERT;011;76;11;11288;Aude;Occitanie;Montpellier;43.25602077505471,2.2649438762045677;99;SANS OBJET;03;AGRICULTURE;1977-12-07
0110887E;Ecole maternelle la Souris Verte;ECOLE MATERNELLE PUBLIQUE;LA SOURIS VERTE;Public;Route de Bagnoles;;;11600;CONQUES SUR ORBIEL;Conques-sur-Orbiel;652562.6;6241546.9;EPSG:2154;43.2715232108776;2.4160168674556908;Correcte;Rue;101;ECOLE MATERNELLE;1;OUVERT;011;76;11;11099;Aude;Occitanie;Montpellier;43.2715232108776,2.4160168674556908;99;SANS OBJET;06;MINISTERE DE L'EDUCATION NATIONALE;1980-09-01
0110919P;Ecole maternelle;ECOLE MATERNELLE PUBLIQUE;;Public;121 avenue Jean Jaurès;;;11370;LEUCATE;Leucate;702536.4;6201080.1;EPSG:2154;42.909132831827215;3.0310294214404707;Parfaite;Numéro de rue;101;ECOLE MATERNELLE;1;OUVERT;011;76;11;11202;Aude;Occitanie;Montpellier;42.909132831827215,3.0310294214404707;99;SANS OBJET;06;MINISTERE DE L'EDUCATION NATIONALE;1983-09-08
0110948W;Ecole maternelle;ECOLE MATERNELLE PUBLIQUE;;Public;Rue Barri del Pont;;;11570;PALAJA;Palaja;649699.4;6230865.1;EPSG:2154;43.17524587198264;2.3818000351428523;Parfaite;Numéro de rue;101;ECOLE MATERNELLE;1;OUVERT;011;76;11;11272;Aude;Occitanie;Montpellier;43.17524587198264,2.3818000351428523;99;SANS OBJET;06;MINISTERE DE L'EDUCATION NATIONALE;1986-09-01
0110955D;Ecole maternelle Antoine de Saint-Exupéry;ECOLE MATERNELLE PUBLIQUE;A. DE ST EXUPERY;Public;Rue des Ecoles;;;11110;COURSAN;Coursan;704555.3;6236976.4;EPSG:2154;43.23197348331832;3.0560395833480563;Parfaite;Numéro de rue;101;ECOLE MATERNELLE;1;OUVERT;011;76;11;11106;Aude;Occitanie;Montpellier;43.23197348331832,3.0560395833480563;99;SANS OBJET;06;MINISTERE DE L'EDUCATION NATIONALE;1987-09-01
0110967S;Ecole maternelle;ECOLE MATERNELLE PUBLIQUE;;Public;1 rue du stade;;;11360;DURBAN CORBIERES;Durban-Corbières;684969.6;6210833.5;EPSG:2154;42.99669285174284;2.8158454461271765;Parfaite;Numéro de rue;101;ECOLE MATERNELLE;1;OUVERT;011;76;11;11124;Aude;Occitanie;Montpellier;42.99669285174284,2.8158454461271765;99;SANS OBJET;06;MINISTERE DE L'EDUCATION NATIONALE;1990-09-01
0110996Y;Section d'enseignement professionnel du Lycée privé Saint Louis;SECTION ENSEIGT PROFES.PRIVEE;LPO PRIVE SAINT LOUIS;Privé;77  RUE AIME RAMOND;;;11000;CARCASSONNE;Carcassonne;647060.8;6234943.4;EPSG:2154;43.211737860722145;2.3489595303800455;Parfaite;Numéro de rue;334;SECTION D ENSEIGNEMENT PROFESSIONNEL;1;OUVERT;011;76;11;11069;Aude;Occitanie;Montpellier;43.211737860722145,2.3489595303800455;30;CONTRAT D'ASSOCIATION TOUTES CLASSES;06;MINISTERE DE L'EDUCATION NATIONALE;1996-07-13
0111001D;Ecole primaire privée la Calandreta Ciutat;ECOLE PRIMAIRE PRIVEE;LA CALANDRETA CIUTAT;Privé;3 chemin Dieudonne Costes;;;11000;CARCASSONNE;Carcassonne;649573.2;6234165.9;EPSG:2154;43.204926359083586;2.3799305308037453;Parfaite;Rue;151;ECOLE DE NIVEAU ELEMENTAIRE;1;OUVERT;011;76;11;11069;Aude;Occitanie;Montpellier;43.204926359083586,2.3799305308037453;30;CONTRAT D'ASSOCIATION TOUTES CLASSES;06;MINISTERE DE L'EDUCATION NATIONALE;1994-09-07
0111007K;Section d'enseignement général et professionnel adapté du Collège Jules Ferry;SEGPA;CLG JULES FERRY;Public;7 rue Vauban;;;11100;NARBONNE;Narbonne;700065.9;6231059.3;EPSG:2154;43.17876376173723;3.0008099593552853;Parfaite;Numéro de rue;390;SECTION ENSEIGNT GEN. ET PROF. ADAPTE;1;OUVERT;011;76;11;11262;Aude;Occitanie;Montpellier;43.17876376173723,3.0008099593552853;99;SANS OBJET;06;MINISTERE DE L'EDUCATION NATIONALE;2002-09-01
0111067A;Ecole Les Clés de l'Envol (Ecole primaire privée);ECOLE ELEMENTAIRE PRIVEE;LES CLES DE L'ENVOL;Privé;118 grand'rue;;;11290;ARZENS;Arzens;635700.2;6233620.1;EPSG:2154;43.19890246406839;2.2094195618324823;Parfaite;Numéro de rue;151;ECOLE DE NIVEAU ELEMENTAIRE;1;OUVERT;011;76;11;11018;Aude;Occitanie;Montpellier;43.19890246406839,2.2094195618324823;10;HORS CONTRAT;06;MINISTERE DE L'EDUCATION NATIONALE;2018-09-01
0111075J;Association Alternatif International (Ecole élémentaire privée);ECOLE ELEMENTAIRE PRIVEE;ASSOCIATION ALTERNATIF INTERNATIONAL;Privé;67 rue de la Battude;;;11430;GRUISSAN;Gruissan;709778.7;6224148.1;EPSG:2154;43.11653363099575;3.1200581533601692;Parfaite;Numéro de rue;151;ECOLE DE NIVEAU ELEMENTAIRE;1;OUVERT;011;76;11;11170;Aude;Occitanie;Montpellier;43.11653363099575,3.1200581533601692;10;HORS CONTRAT;06;MINISTERE DE L'EDUCATION NATIONALE;2019-09-01
0120011X;Collège Kervallon;COLLEGE;KERVALLON;Public;Route de Rodez;KERVALLON;13;12330;MARCILLAC VALLON;Marcillac-Vallon;657763.4;6373726.6;EPSG:2154;44.46131474659583;2.4690995364517314;Parfaite;Numéro de rue;340;COLLEGE;1;OUVERT;012;76;16;12138;Aveyron;Occitanie;Toulouse;44.46131474659583,2.4690995364517314;99;SANS OBJET;06;MINISTERE DE L'EDUCATION NATIONALE;1965-05-01
0120022J;Lycée général Ferdinand Foch;LYCEE GENERAL;FERDINAND FOCH;Public;1  RUE VIEUSSENS;;;12000;RODEZ;Rodez;664919.5;6361276.9;EPSG:2154;44.34964343485163;2.559919500315567;Parfaite;Rue;302;LYCEE D ENSEIGNEMENT GENERAL;1;OUVERT;012;76;16;12202;Aveyron;Occitanie;Toulouse;44.34964343485163,2.559919500315567;99;SANS OBJET;06;MINISTERE DE L'EDUCATION NATIONALE;1965-05-01
0120061B;Lycée général et technologique privé Saint-Joseph;LYCEE GENERAL ET TECHNO. PRIVE;SAINT-JOSEPH;Privé;24 avenue ETIENNE SOULIE;;;12200;VILLEFRANCHE DE ROUERGUE;Villefranche-de-Rouergue;623397.3;6362353.2;EPSG:2154;44.356015311402885;2.038901840318863;Parfaite;Numéro de rue;300;LYCEE ENSEIGNT GENERAL ET TECHNOLOGIQUE;1;OUVERT;012;76;16;12300;Aveyron;Occitanie;Toulouse;44.356015311402885,2.038901840318863;30;CONTRAT D'ASSOCIATION TOUTES CLASSES;06;MINISTERE DE L'EDUCATION NATIONALE;1967-05-11
0120092K;Collège privé Saint-Joseph;COLLEGE PRIVE;SAINT-JOSEPH;Privé;3 rue FONCOURIEU;;;12330;MARCILLAC VALLON;Marcillac-Vallon;657250.6;6375289.2;EPSG:2154;44.47534977402794;2.4625203110359832;Parfaite;Numéro de rue;340;COLLEGE;1;OUVERT;012;76;16;12138;Aveyron;Occitanie;Toulouse;44.47534977402794,2.4625203110359832;30;CONTRAT D'ASSOCIATION TOUTES CLASSES;06;MINISTERE DE L'EDUCATION NATIONALE;1967-05-19
0120101V;Collège Amans-Joseph Fabre;COLLEGE;AMANS-JOSEPH FABRE;Public;2 boulevard BELLE ISLE;;;12000;RODEZ;Rodez;666186.9;6361700.3;EPSG:2154;44.35351707396835;2.5757900290098488;Parfaite;Numéro de rue;340;COLLEGE;1;OUVERT;012;76;16;12202;Aveyron;Occitanie;Toulouse;44.35351707396835,2.5757900290098488;99;SANS OBJET;06;MINISTERE DE L'EDUCATION NATIONALE;1968-04-17
0120125W;Ecole primaire publique;ECOLE PRIMAIRE PUBLIQUE;;Public;;LE BOURG;;12220;LES ALBRES;Les Albres;634403.8;6382278.1;EPSG:2154;44.53648766196774;2.17437058394382;Correcte;Ville;151;ECOLE DE NIVEAU ELEMENTAIRE;1;OUVERT;012;76;16;12003;Aveyron;Occitanie;Toulouse;44.53648766196774,2.17437058394382;99;SANS OBJET;06;MINISTERE DE L'EDUCATION NATIONALE;1968-12-14
0120147V;Ecole primaire publique Marcel Pagnol;ECOLE PRIMAIRE PUBLIQUE;MARCEL PAGNOL;Public;Place Marcel Pagnol;;;12110;AUBIN;Aubin;641744.1;6382483.2;EPSG:2154;44.53898621452704;2.266729970514432;Parfaite;Numéro de rue;151;ECOLE DE NIVEAU ELEMENTAIRE;1;OUVERT;012;76;16;12013;Aveyron;Occitanie;Toulouse;44.53898621452704,2.266729970514432;99;SANS OBJET;06;MINISTERE DE L'EDUCATION NATIONALE;1968-12-14
0120174Z;Ecole primaire publique;ECOLE PRIMAIRE PUBLIQUE;;Public;154 rue de l'Aveyron;;;12310;BERTHOLENE;Bertholène;681877.4;6366820.1;EPSG:2154;44.40018633670638;2.7724521239647704;Correcte;Rue;151;ECOLE DE NIVEAU ELEMENTAIRE;1;OUVERT;012;76;16;12026;Aveyron;Occitanie;Toulouse;44.40018633670638,2.7724521239647704;99;SANS OBJET;06;MINISTERE DE L'EDUCATION NATIONALE;1968-12-14
0120199B;Ecole primaire publique;ECOLE PRIMAIRE PUBLIQUE;;Public;;LE BOURG;;12350;BRANDONNET;Brandonnet;631130.8;6365786.7;EPSG:2154;44.38772513241645;2.135450611734534;Correcte;Ville;151;ECOLE DE NIVEAU ELEMENTAIRE;1;OUVERT;012;76;16;12034;Aveyron;Occitanie;Toulouse;44.38772513241645,2.135450611734534;99;SANS OBJET;06;MINISTERE DE L'EDUCATION NATIONALE;1968-12-14
0120221A;Ecole primaire publique;ECOLE PRIMAIRE PUBLIQUE;;Public;11 GRAND'RUE;;;12360;CAMARES;Camarès;690206.7;6302503.2;EPSG:2154;43.821473870357565;2.8782796677942235;Parfaite;Numéro de rue;151;ECOLE DE NIVEAU ELEMENTAIRE;1;OUVERT;012;76;16;12044;Aveyron;Occitanie;Toulouse;43.821473870357565,2.8782796677942235;99;SANS OBJET;06;MINISTERE DE L'EDUCATION NATIONALE;1968-12-15
0120268B;Ecole primaire publique du Causse;ECOLE PRIMAIRE PUBLIQUE;DU CAUSSE;Public;80 route de l'école;;;12260;LA CAPELLE BALAGUIER;La Capelle-Balaguier;615263.8;6371471.5;EPSG:2154;44.43715004383794;1.93532394742632;Moyenne;Numéro de rue;151;ECOLE DE NIVEAU ELEMENTAIRE;1;OUVERT;012;76;16;12053;Aveyron;Occitanie;Toulouse;44.43715004383794,1.93532394742632;99;SANS OBJET;06;MINISTERE DE L'EDUCATION NATIONALE;1968-12-16
0120301M;Ecole élémentaire publique Marie Curie;ECOLE ELEMENTAIRE PUBLIQUE;MARIE CURIE;Public;5 avenue de Cransac;;;12300;FIRMI;Firmi;645243.8;6382472.2;EPSG:2154;44.53917097024167;2.310779775265809;Parfaite;Numéro de rue;151;ECOLE DE NIVEAU ELEMENTAIRE;1;OUVERT;012;76;16;12100;Aveyron;Occitanie;Toulouse;44.53917097024167,2.310779775265809;99;SANS OBJET;06;MINISTERE DE L'EDUCATION NATIONALE;1968-12-17
0120302N;Ecole maternelle publique Jean Zay;ECOLE MATERNELLE PUBLIQUE;JEAN ZAY;Public;7 avenue de Cransac;;;12300;FIRMI;Firmi;645237.0;6382327.5;EPSG:2154;44.537867852290724;2.3107100862912633;Parfaite;Numéro de rue;101;ECOLE MATERNELLE;1;OUVERT;012;76;16;12100;Aveyron;Occitanie;Toulouse;44.537867852290724,2.3107100862912633;99;SANS OBJET;06;MINISTERE DE L'EDUCATION NATIONALE;1968-12-17
0120303P;Ecole élémentaire publique La Bessenoits;ECOLE ELEMENTAIRE PUBLIQUE;LA BESSENOITS;Public;;LA BESSENOITS;;12300;FIRMI;Firmi;644914.4;6385494.0;EPSG:2154;44.566347279187;2.306299664853511;Parfaite;Numéro de rue;151;ECOLE DE NIVEAU ELEMENTAIRE;1;OUVERT;012;76;16;12100;Aveyron;Occitanie;Toulouse;44.566347279187,2.306299664853511;99;SANS OBJET;06;MINISTERE DE L'EDUCATION NATIONALE;1968-12-17
0120311Y;Ecole primaire publique;ECOLE PRIMAIRE PUBLIQUE;;Public;;LE BOURG;;12260;FOISSAC;Foissac;620800.0;6379525.9;EPSG:2154;44.510300430750554;2.0035994832010267;Correcte;Ville;151;ECOLE DE NIVEAU ELEMENTAIRE;1;OUVERT;012;76;16;12104;Aveyron;Occitanie;Toulouse;44.510300430750554,2.0035994832010267;99;SANS OBJET;06;MINISTERE DE L'EDUCATION NATIONALE;1968-12-17
0120318F;Ecole élémentaire publique;ECOLE ELEMENTAIRE PUBLIQUE;;Public;;LE BOURG;;12310;GAILLAC D AVEYRON;Gaillac-d'Aveyron;694462.8;6361791.2;EPSG:2154;44.355130978809825;2.930530138645549;Correcte;Ville;151;ECOLE DE NIVEAU ELEMENTAIRE;1;OUVERT;012;76;16;12107;Aveyron;Occitanie;Toulouse;44.355130978809825,2.930530138645549;99;SANS OBJET;06;MINISTERE DE L'EDUCATION NATIONALE;1968-12-17
0120330U;Ecole primaire publique;ECOLE PRIMAIRE PUBLIQUE;;Public;;LE BOURG;;12350;COMPOLIBAT;Compolibat;635874.3;6364569.1;EPSG:2154;44.37721665063197;2.1951496467729026;Correcte;Ville;151;ECOLE DE NIVEAU ELEMENTAIRE;1;OUVERT;012;76;16;12071;Aveyron;Occitanie;Toulouse;44.37721665063197,2.1951496467729026;99;SANS OBJET;06;MINISTERE DE L'EDUCATION NATIONALE;1968-12-16
0120341F;Ecole élémentaire publique;ECOLE ELEMENTAIRE PUBLIQUE;;Public;;LE BOURG;;12540;CORNUS;Cornus;714350.1;6311515.7;EPSG:2154;43.902500777743136;3.1786097355433127;Correcte;Ville;151;ECOLE DE NIVEAU ELEMENTAIRE;1;OUVERT;012;76;16;12077;Aveyron;Occitanie;Toulouse;43.902500777743136,3.1786097355433127;99;SANS OBJET;06;MINISTERE DE L'EDUCATION NATIONALE;1968-12-16
0120420S;Ecole primaire publique Lioujas;ECOLE PRIMAIRE PUBLIQUE;LIOUJAS;Public;;LES CASTELETS LIOUJAS;;12740;LA LOUBIERE;La Loubière;671147.2;6367590.0;EPSG:2154;44.40675597993207;2.6376806135845405;Parfaite;Numéro de rue;151;ECOLE DE NIVEAU ELEMENTAIRE;1;OUVERT;012;76;16;12131;Aveyron;Occitanie;Toulouse;44.40675597993207,2.6376806135845405;99;SANS OBJET;06;MINISTERE DE L'EDUCATION NATIONALE;1968-12-18
0120441P;Ecole élémentaire publique;ECOLE ELEMENTAIRE PUBLIQUE;;Public;;LE BOURG;;12550;MARTRIN;Martrin;669522.0;6315623.5;EPSG:2154;43.93895566770819;2.620409481063795;Correcte;Ville;151;ECOLE DE NIVEAU ELEMENTAIRE;1;OUVERT;012;76;16;12141;Aveyron;Occitanie;Toulouse;43.93895566770819,2.620409481063795;99;SANS OBJET;06;MINISTERE DE L'EDUCATION NATIONALE;1968-12-19
0120448X;Ecole primaire publique Le Crès-Albert Séguier;ECOLE PRIMAIRE PUBLIQUE;LE CRES-ALBERT SEGUIER;Public;25 avenue Charles de Gaulle;;;12100;MILLAU;Millau;705944.1;6334208.8;EPSG:2154;44.106857956060004;3.074249442053844;Parfaite;Numéro de rue;151;ECOLE DE NIVEAU ELEMENTAIRE;1;OUVERT;012;76;16;12145;Aveyron;Occitanie;Toulouse;44.106857956060004,3.074249442053844;99;SANS OBJET;06;MINISTERE DE L'EDUCATION NATIONALE;1968-12-19
0120497A;Ecole élémentaire publique Gaurels;ECOLE ELEMENTAIRE PUBLIQUE;GAURELS;Public;;GAURELS;;12260;MONTSALES;Montsalès;619950.7;6376817.9;EPSG:2154;44.48582760073887;1.993350051190409;Parfaite;Numéro de rue;151;ECOLE DE NIVEAU ELEMENTAIRE;1;OUVERT;012;76;16;12158;Aveyron;Occitanie;Toulouse;44.48582760073887,1.993350051190409;99;SANS OBJET;06;MINISTERE DE L'EDUCATION NATIONALE;1968-12-19
0120498B;Ecole primaire publique;ECOLE PRIMAIRE PUBLIQUE;;Public;;LE BOURG;;12200;MORLHON LE HAUT;Morlhon-le-Haut;625343.9;6358877.0;EPSG:2154;44.324937019504624;2.0638396541801285;Correcte;Ville;151;ECOLE DE NIVEAU ELEMENTAIRE;1;OUVERT;012;76;16;12159;Aveyron;Occitanie;Toulouse;44.324937019504624,2.0638396541801285;99;SANS OBJET;06;MINISTERE DE L'EDUCATION NATIONALE;1968-12-19
0120507L;Ecole primaire publique;ECOLE PRIMAIRE PUBLIQUE;;Public;Rue des Ecoles;;;12370;MURASSON;Murasson;681037.7;6295735.6;EPSG:2154;43.76038731368399;2.7645700241083575;Parfaite;Numéro de rue;151;ECOLE DE NIVEAU ELEMENTAIRE;1;OUVERT;012;76;16;12163;Aveyron;Occitanie;Toulouse;43.76038731368399,2.7645700241083575;99;SANS OBJET;06;MINISTERE DE L'EDUCATION NATIONALE;1968-12-20
0120565Z;Ecole élémentaire publique;ECOLE ELEMENTAIRE PUBLIQUE;;Public;;LE BOURG;;12320;PRUINES;Pruines;660672.8;6381325.5;EPSG:2154;44.52988978992955;2.505070089234395;Correcte;Ville;151;ECOLE DE NIVEAU ELEMENTAIRE;1;OUVERT;012;76;16;12193;Aveyron;Occitanie;Toulouse;44.52988978992955,2.505070089234395;99;SANS OBJET;06;MINISTERE DE L'EDUCATION NATIONALE;1968-12-23
0120567B;Ecole primaire publique Salan;ECOLE PRIMAIRE PUBLIQUE;SALAN;Public;;SALAN;;12800;QUINS;Quins;653471.9;6347934.8;EPSG:2154;44.228882643348854;2.4175499471965285;Parfaite;Numéro de rue;151;ECOLE DE NIVEAU ELEMENTAIRE;1;OUVERT;012;76;16;12194;Aveyron;Occitanie;Toulouse;44.228882643348854,2.4175499471965285;99;SANS OBJET;06;MINISTERE DE L'EDUCATION NATIONALE;1968-12-23
0120612A;Ecole élémentaire publique Ferdinand Foch;ECOLE ELEMENTAIRE PUBLIQUE;FERDINAND FOCH;Public;2 rue de Paraire;;;12000;RODEZ;Rodez;665393.7;6361402.2;EPSG:2154;44.35079494118924;2.565859517339111;Parfaite;Numéro de rue;151;ECOLE DE NIVEAU ELEMENTAIRE;1;OUVERT;012;76;16;12202;Aveyron;Occitanie;Toulouse;44.35079494118924,2.565859517339111;99;SANS OBJET;06;MINISTERE DE L'EDUCATION NATIONALE;1969-01-13
0120641G;Ecole primaire publique Lo Picoral;ECOLE PRIMAIRE PUBLIQUE;LO PICORAL;Public;Rue de la Fontaine;;;12470;ST CHELY D AUBRAC;Saint-Chély-d'Aubrac;693870.1;6387978.3;EPSG:2154;44.590863407250296;2.9227727888914825;Moyenne;Rue;151;ECOLE DE NIVEAU ELEMENTAIRE;1;OUVERT;012;76;16;12214;Aveyron;Occitanie;Toulouse;44.590863407250296,2.9227727888914825;99;SANS OBJET;06;MINISTERE DE L'EDUCATION NATIONALE;1969-01-14
0120661D;Ecole élémentaire publique Maurice Boyau;ECOLE ELEMENTAIRE PUBLIQUE;MAURICE BOYAU;Public;;LE BOURG;;12400;ST FELIX DE SORGUES;Saint-Félix-de-Sorgues;698793.7;6309430.4;EPSG:2154;43.883879472302986;2.9849905929950293;Correcte;Ville;151;ECOLE DE NIVEAU ELEMENTAIRE;1;OUVERT;012;76;16;12222;Aveyron;Occitanie;Toulouse;43.883879472302986,2.9849905929950293;99;SANS OBJET;06;MINISTERE DE L'EDUCATION NATIONALE;1969-01-14
0120687G;Ecole élémentaire publique Saint-Jean-d'Alcas;ECOLE ELEMENTAIRE PUBLIQUE;SAINT-JEAN-D'ALCAS;Public;Hameau Saint-Jean-d'Alcas;;;12250;ST JEAN ET ST PAUL;Saint-Jean-et-Saint-Paul;700436.9;6314268.7;EPSG:2154;43.92742221566924;3.005440282927611;Correcte;Rue;151;ECOLE DE NIVEAU ELEMENTAIRE;1;OUVERT;012;76;16;12232;Aveyron;Occitanie;Toulouse;43.92742221566924,3.005440282927611;99;SANS OBJET;06;MINISTERE DE L'EDUCATION NATIONALE;1969-01-15
0120696S;Ecole primaire publique;ECOLE PRIMAIRE PUBLIQUE;;Public;Rue du Barry des Aurels;;;12560;ST LAURENT D OLT;Saint-Laurent-d'Olt;708826.1;6371844.0;EPSG:2154;44.445590005258076;3.110909595948325;Parfaite;Rue;151;ECOLE DE NIVEAU ELEMENTAIRE;1;OUVERT;012;76;16;12237;Aveyron;Occitanie;Toulouse;44.445590005258076,3.110909595948325;99;SANS OBJET;06;MINISTERE DE L'EDUCATION NATIONALE;1969-01-15
0120715M;Ecole élémentaire publique Saint-Julien-de-Piganiol;ECOLE ELEMENTAIRE PUBLIQUE;ST-JULIEN DE PIGANIOL;Public;6 chemin des Ecoliers;SAINT-JULIEN DE PIGANIOL;;12300;ST SANTIN;Saint-Santin;638007.2;6394728.8;EPSG:2154;44.648899473975355;2.21817029805138;Moyenne;Ville;151;ECOLE DE NIVEAU ELEMENTAIRE;1;OUVERT;012;76;16;12246;Aveyron;Occitanie;Toulouse;44.648899473975355,2.21817029805138;99;SANS OBJET;06;MINISTERE DE L'EDUCATION NATIONALE;1969-01-15
0120732F;Ecole primaire publique Souyri;ECOLE PRIMAIRE PUBLIQUE;SOUYRI;Public;;SOUYRI;;12330;SALLES LA SOURCE;Salles-la-Source;662281.4;6368121.5;EPSG:2154;44.411117889671495;2.5263105410932933;Parfaite;Numéro de rue;151;ECOLE DE NIVEAU ELEMENTAIRE;1;OUVERT;012;76;16;12254;Aveyron;Occitanie;Toulouse;44.411117889671495,2.5263105410932933;99;SANS OBJET;06;MINISTERE DE L'EDUCATION NATIONALE;1969-01-16
0120778F;Ecole maternelle publique Jules Ferry;ECOLE MATERNELLE PUBLIQUE;JULES FERRY;Public;34 rue Serge Duhourquet;;;12150;SEVERAC D AVEYRON;Sévérac d'Aveyron;704988.5;6358185.6;EPSG:2154;44.32267929553881;3.0625500257137093;Parfaite;Numéro de rue;101;ECOLE MATERNELLE;1;OUVERT;012;76;16;12270;Aveyron;Occitanie;Toulouse;44.32267929553881,3.0625500257137093;99;SANS OBJET;06;MINISTERE DE L'EDUCATION NATIONALE;1969-01-17
0120811S;Ecole primaire publique Jean de La Fontaine;ECOLE PRIMAIRE PUBLIQUE;JEAN DE LA FONTAINE;Public;Rue des Espalies;;;12400;VABRES L ABBAYE;Vabres-l'Abbaye;687122.4;6316197.9;EPSG:2154;43.94466661849203;2.839599425456976;Parfaite;Numéro de rue;151;ECOLE DE NIVEAU ELEMENTAIRE;1;OUVERT;012;76;16;12286;Aveyron;Occitanie;Toulouse;43.94466661849203,2.839599425456976;99;SANS OBJET;06;MINISTERE DE L'EDUCATION NATIONALE;1969-01-17
0120826H;Ecole primaire publique;ECOLE PRIMAIRE PUBLIQUE;;Public;;LE BOURG;;12720;VEYREAU;Veyreau;723838.7;6343003.9;EPSG:2154;44.18563944711014;3.2981895247691506;Correcte;Ville;151;ECOLE DE NIVEAU ELEMENTAIRE;1;OUVERT;012;76;16;12293;Aveyron;Occitanie;Toulouse;44.18563944711014,3.2981895247691506;99;SANS OBJET;06;MINISTERE DE L'EDUCATION NATIONALE;1969-01-18
0120867C;Lycée agricole privé François Marty - site de Monteils;LYCEE AGRICOLE PRIVE;F. MARTY - MONTEILS;Privé;348 chemin du mas de castanie;LE BOURG;;12200;MONTEILS;Monteils;619851.0;6352920.7;EPSG:2154;44.27071902008146;1.9959175633840847;Parfaite;Numéro de rue;320;LYCEE PROFESSIONNEL;1;OUVERT;012;76;16;12150;Aveyron;Occitanie;Toulouse;44.27071902008146,1.9959175633840847;99;SANS OBJET;03;AGRICULTURE;1969-09-24
0120873J;Ecole maternelle publique M.-J. Gantou-Bauer;ECOLE MATERNELLE PUBLIQUE;MARIE-JEANNE GANTOU-BAUER;Public;3 rue Emile Cartailhac;;;12400;ST AFFRIQUE;Saint-Affrique;691142.4;6317450.3;EPSG:2154;43.95599978868895;2.8896497874680143;Parfaite;Numéro de rue;101;ECOLE MATERNELLE;1;OUVERT;012;76;16;12208;Aveyron;Occitanie;Toulouse;43.95599978868895,2.8896497874680143;99;SANS OBJET;06;MINISTERE DE L'EDUCATION NATIONALE;1969-11-12
0120917G;Ecole primaire publique Bellevue;ECOLE PRIMAIRE PUBLIQUE;BELLEVUE;Public;2 chemin de la Treille;;;12520;AGUESSAC;Aguessac;707894.5;6339158.4;EPSG:2154;44.15138783723015;3.0986896934697516;Correcte;Numéro de rue;151;ECOLE DE NIVEAU ELEMENTAIRE;1;OUVERT;012;76;16;12002;Aveyron;Occitanie;Toulouse;44.15138783723015,3.0986896934697516;99;SANS OBJET;06;MINISTERE DE L'EDUCATION NATIONALE;1970-06-18
0120924P;Ecole élémentaire publique Jean Moulin;ECOLE ELEMENTAIRE PUBLIQUE;JEAN MOULIN;Public;Rue des Douves;;;12150;SEVERAC D AVEYRON;Sévérac d'Aveyron;705676.1;6358070.0;EPSG:2154;44.32163348954681;3.0711704243411297;Parfaite;Numéro de rue;151;ECOLE DE NIVEAU ELEMENTAIRE;1;OUVERT;012;76;16;12270;Aveyron;Occitanie;Toulouse;44.32163348954681,3.0711704243411297;99;SANS OBJET;06;MINISTERE DE L'EDUCATION NATIONALE;1970-06-18
0120939F;Ecole primaire privée Notre-Dame;ECOLE PRIMAIRE PRIVEE;NOTRE-DAME;Privé;;LE BOURG;;12350;DRULHE;Drulhe;630749.6;6374065.0;EPSG:2154;44.46220304101317;2.12952002161266;Correcte;Ville;151;ECOLE DE NIVEAU ELEMENTAIRE;1;OUVERT;012;76;16;12091;Aveyron;Occitanie;Toulouse;44.46220304101317,2.12952002161266;30;CONTRAT D'ASSOCIATION TOUTES CLASSES;06;MINISTERE DE L'EDUCATION NATIONALE;1971-01-15
0120943K;Ecole maternelle privée Saint-Michel;ECOLE MATERNELLE PRIVEE;SAINT-MICHEL;Privé;Rue du Chanoine Brévier;;;12500;ESPALION;Espalion;681059.4;6380303.4;EPSG:2154;44.52154079495079;2.761670373138851;Parfaite;Numéro de rue;101;ECOLE MATERNELLE;1;OUVERT;012;76;16;12096;Aveyron;Occitanie;Toulouse;44.52154079495079,2.761670373138851;30;CONTRAT D'ASSOCIATION TOUTES CLASSES;06;MINISTERE DE L'EDUCATION NATIONALE;1971-01-15
0120950T;Ecole primaire privée Saint-Jean-Baptiste;ECOLE PRIMAIRE PRIVEE;SAINT-JEAN-BAPTISTE;Privé;8 chemin de Soulignac;;;12270;LA FOUILLADE;La Fouillade;623555.0;6348100.1;EPSG:2154;44.22774559763002;2.043047346278288;Parfaite;Numéro de rue;151;ECOLE DE NIVEAU ELEMENTAIRE;1;OUVERT;012;76;16;12105;Aveyron;Occitanie;Toulouse;44.22774559763002,2.043047346278288;30;CONTRAT D'ASSOCIATION TOUTES CLASSES;06;MINISTERE DE L'EDUCATION NATIONALE;1971-01-15
0120979Z;Ecole primaire privée Sacré Coeur;ECOLE PRIMAIRE PRIVEE;SACRE COEUR;Privé;7 rue Jean Moulin;;;12100;MILLAU;Millau;705951.4;6333302.7;EPSG:2154;44.09870261347218;3.074329974038931;Parfaite;Numéro de rue;151;ECOLE DE NIVEAU ELEMENTAIRE;1;OUVERT;012;76;16;12145;Aveyron;Occitanie;Toulouse;44.09870261347218,3.074329974038931;30;CONTRAT D'ASSOCIATION TOUTES CLASSES;06;MINISTERE DE L'EDUCATION NATIONALE;1971-01-15
0121004B;Ecole primaire privée Saint-Michel;ECOLE PRIMAIRE PRIVEE;SAINT-MICHEL;Privé;Rue Michel de Pontault;;;12370;BELMONT SUR RANCE;Belmont-sur-Rance;680274.4;6302051.8;EPSG:2154;43.81720412482901;2.754849724907965;Parfaite;Numéro de rue;151;ECOLE DE NIVEAU ELEMENTAIRE;1;OUVERT;012;76;16;12025;Aveyron;Occitanie;Toulouse;43.81720412482901,2.754849724907965;30;CONTRAT D'ASSOCIATION TOUTES CLASSES;06;MINISTERE DE L'EDUCATION NATIONALE;1971-01-14
0121024Y;Ecole primaire privée Sainte-Bernadette;ECOLE PRIMAIRE PRIVEE;SAINTE-BERNADETTE;Privé;9 rue du Portalou;;;12230;LA CAVALERIE;La Cavalerie;712653.2;6323223.6;EPSG:2154;44.00790034859075;3.157780365343646;Parfaite;Numéro de rue;151;ECOLE DE NIVEAU ELEMENTAIRE;1;OUVERT;012;76;16;12063;Aveyron;Occitanie;Toulouse;44.00790034859075,3.157780365343646;30;CONTRAT D'ASSOCIATION TOUTES CLASSES;06;MINISTERE DE L'EDUCATION NATIONALE;1971-01-14
0121063R;Ecole primaire privée Sainte-Famille;ECOLE PRIMAIRE PRIVEE;SAINTE-FAMILLE;Privé;4 avenue du Rouergue;;;12240;RIEUPEYROUX;Rieupeyroux;639470.5;6356957.1;EPSG:2154;44.30902093260161;2.2412012426415124;Parfaite;Numéro de rue;151;ECOLE DE NIVEAU ELEMENTAIRE;1;OUVERT;012;76;16;12198;Aveyron;Occitanie;Toulouse;44.30902093260161,2.2412012426415124;30;CONTRAT D'ASSOCIATION TOUTES CLASSES;06;MINISTERE DE L'EDUCATION NATIONALE;1971-01-18
0121077F;Ecole primaire privée Saint-Jean-Baptiste;ECOLE PRIMAIRE PRIVEE;SAINT-JEAN-BAPTISTE;Privé;23 bis rue Lamartine;;;12400;ST AFFRIQUE;Saint-Affrique;691244.5;6317556.0;EPSG:2154;43.95695233084717;2.8909199542657946;Parfaite;Numéro de rue;151;ECOLE DE NIVEAU ELEMENTAIRE;1;OUVERT;012;76;16;12208;Aveyron;Occitanie;Toulouse;43.95695233084717,2.8909199542657946;30;CONTRAT D'ASSOCIATION TOUTES CLASSES;06;MINISTERE DE L'EDUCATION NATIONALE;1971-01-18
0121088T;Ecole primaire privée Sainte Marie;ECOLE PRIMAIRE    PRIVEE;SAINTE-MARIE;Privé;Rue;;;12130;ST GENIEZ D OLT ET D AUBRAC;Saint Geniez d'Olt et d'Aubrac;698026.4;6374167.0;EPSG:2154;44.46655462607554;2.9751903711090084;Correcte;Numéro de rue;151;ECOLE DE NIVEAU ELEMENTAIRE;1;OUVERT;012;76;16;12224;Aveyron;Occitanie;Toulouse;44.46655462607554,2.9751903711090084;30;CONTRAT D'ASSOCIATION TOUTES CLASSES;06;MINISTERE DE L'EDUCATION NATIONALE;1971-01-18
0121112U;Ecole primaire privée Bon Pasteur;ECOLE PRIMAIRE PRIVEE;BON PASTEUR;Privé;5 rue du Barry;;;12150;SEVERAC D AVEYRON;Sévérac d'Aveyron;705754.9;6358183.0;EPSG:2154;44.32265000723496;3.072159761340728;Parfaite;Numéro de rue;151;ECOLE DE NIVEAU ELEMENTAIRE;1;OUVERT;012;76;16;12270;Aveyron;Occitanie;Toulouse;44.32265000723496,3.072159761340728;30;CONTRAT D'ASSOCIATION TOUTES CLASSES;06;MINISTERE DE L'EDUCATION NATIONALE;1971-01-19
0121116Y;Ecole primaire privée de Crépounac;ECOLE PRIMAIRE PRIVEE;DE CREPOUNAC;Privé;Rue du Couvent;;;12250;TOURNEMIRE;Tournemire;701714.9;6319056.9;EPSG:2154;43.97051234755859;3.021370086566333;Parfaite;Numéro de rue;151;ECOLE DE NIVEAU ELEMENTAIRE;1;OUVERT;012;76;16;12282;Aveyron;Occitanie;Toulouse;43.97051234755859,3.021370086566333;30;CONTRAT D'ASSOCIATION TOUTES CLASSES;06;MINISTERE DE L'EDUCATION NATIONALE;1971-01-19
0121117Z;Ecole primaire privée Sainte Famille;ECOLE PRIMAIRE PRIVEE;SAINTE FAMILLE;Privé;4 rue DES JARDINS;;;12400;VABRES L ABBAYE;Vabres-l'Abbaye;686883.2;6316039.4;EPSG:2154;43.94323576897844;2.836624095661401;Correcte;Rue;151;ECOLE DE NIVEAU ELEMENTAIRE;1;OUVERT;012;76;16;12286;Aveyron;Occitanie;Toulouse;43.94323576897844,2.836624095661401;30;CONTRAT D'ASSOCIATION TOUTES CLASSES;06;MINISTERE DE L'EDUCATION NATIONALE;1971-01-19
0121122E;Ecole primaire privée Saint-Joseph;ECOLE PRIMAIRE PRIVEE;SAINT-JOSEPH;Privé;;LES ESCALARS;;12580;VILLECOMTAL;Villecomtal;665585.4;6382251.3;EPSG:2154;44.53848386354359;2.566829554319234;Parfaite;Numéro de rue;151;ECOLE DE NIVEAU ELEMENTAIRE;1;OUVERT;012;76;16;12298;Aveyron;Occitanie;Toulouse;44.53848386354359,2.566829554319234;30;CONTRAT D'ASSOCIATION TOUTES CLASSES;06;MINISTERE DE L'EDUCATION NATIONALE;1971-01-19
0121123F;Ecole primaire privée La Besse-Vors;ECOLE PRIMAIRE PRIVEE;LA BESSE-VORS;Privé;8 rue des Pénitents Blancs;LA BESSE VORS;;12430;VILLEFRANCHE DE PANAT;Villefranche-de-Panat;676578.0;6331203.4;EPSG:2154;44.07944302328593;2.707569425191832;Parfaite;Numéro de rue;151;ECOLE DE NIVEAU ELEMENTAIRE;1;OUVERT;012;76;16;12299;Aveyron;Occitanie;Toulouse;44.07944302328593,2.707569425191832;30;CONTRAT D'ASSOCIATION TOUTES CLASSES;06;MINISTERE DE L'EDUCATION NATIONALE;1971-01-19
0121125H;Ecole primaire privée Sainte-Famille;ECOLE PRIMAIRE PRIVEE;SAINTE-FAMILLE;Privé;8 rue des Cordeliers;;;12200;VILLEFRANCHE DE ROUERGUE;Villefranche-de-Rouergue;623123.6;6361880.8;EPSG:2154;44.351733247664846;2.0355405851297346;Parfaite;Numéro de rue;151;ECOLE DE NIVEAU ELEMENTAIRE;1;OUVERT;012;76;16;12300;Aveyron;Occitanie;Toulouse;44.351733247664846,2.0355405851297346;30;CONTRAT D'ASSOCIATION TOUTES CLASSES;06;MINISTERE DE L'EDUCATION NATIONALE;1971-01-19
0121128L;Ecole primaire privee Notre-Dame;ECOLE PRIMAIRE    PRIVEE;NOTRE-DAME;Privé;Rue du Couvent;;;12260;VILLENEUVE;Villeneuve;622795.1;6371416.9;EPSG:2154;44.43753205010245;2.029950125819219;Parfaite;Numéro de rue;151;ECOLE DE NIVEAU ELEMENTAIRE;1;OUVERT;012;76;16;12301;Aveyron;Occitanie;Toulouse;44.43753205010245,2.029950125819219;30;CONTRAT D'ASSOCIATION TOUTES CLASSES;06;MINISTERE DE L'EDUCATION NATIONALE;1971-01-19
0121138X;Ecole primaire publique;ECOLE PRIMAIRE PUBLIQUE;;Public;;LE BOURG;;12600;BROMMAT;Brommat;675032.1;6414656.7;EPSG:2154;44.83062375349433;2.6841002119372845;Correcte;Ville;151;ECOLE DE NIVEAU ELEMENTAIRE;1;OUVERT;012;76;16;12036;Aveyron;Occitanie;Toulouse;44.83062375349433,2.6841002119372845;99;SANS OBJET;06;MINISTERE DE L'EDUCATION NATIONALE;1971-06-18
0121148H;Ecole élémentaire publique La Chartreuse;ECOLE ELEMENTAIRE PUBLIQUE;LA CHARTREUSE;Public;Rue des Pervenches;;;12200;VILLEFRANCHE DE ROUERGUE;Villefranche-de-Rouergue;623063.4;6361064.3;EPSG:2154;44.34437741546649;2.034910606870417;Parfaite;Numéro de rue;151;ECOLE DE NIVEAU ELEMENTAIRE;1;OUVERT;012;76;16;12300;Aveyron;Occitanie;Toulouse;44.34437741546649,2.034910606870417;99;SANS OBJET;06;MINISTERE DE L'EDUCATION NATIONALE;1971-09-02
0121153N;Ecole primaire privée Marguerite Marie;ECOLE PRIMAIRE PRIVEE;MARGUERITE MARIE;Privé;19 rue de la Fraternité;;;12100;MILLAU;Millau;706373.0;6333685.3;EPSG:2154;44.10214247114479;3.079600358302301;Parfaite;Numéro de rue;151;ECOLE DE NIVEAU ELEMENTAIRE;1;OUVERT;012;76;16;12145;Aveyron;Occitanie;Toulouse;44.10214247114479,3.079600358302301;30;CONTRAT D'ASSOCIATION TOUTES CLASSES;06;MINISTERE DE L'EDUCATION NATIONALE;1971-10-06
0121156S;Ecole primaire privée Sainte-Marie;ECOLE PRIMAIRE PRIVEE;SAINTE-MARIE;Privé;9 rue des Ecoles;;;12290;PONT DE SALARS;Pont-de-Salars;678300.5;6353432.3;EPSG:2154;44.27957473840352;2.728119577865038;Parfaite;Numéro de rue;151;ECOLE DE NIVEAU ELEMENTAIRE;1;OUVERT;012;76;16;12185;Aveyron;Occitanie;Toulouse;44.27957473840352,2.728119577865038;30;CONTRAT D'ASSOCIATION TOUTES CLASSES;06;MINISTERE DE L'EDUCATION NATIONALE;1970-10-06
0121158U;Ecole primaire privée Sainte-Angèle;ECOLE PRIMAIRE PRIVEE;SAINTE-ANGELE;Privé;Avenue de la Roque;LAISSAC;;12310;LAISSAC SEVERAC L EGLISE;Laissac-Sévérac l'Eglise;685956.9;6364828.7;EPSG:2154;44.38235426159003;2.8237300630608737;Parfaite;Numéro de rue;151;ECOLE DE NIVEAU ELEMENTAIRE;1;OUVERT;012;76;16;12120;Aveyron;Occitanie;Toulouse;44.38235426159003,2.8237300630608737;30;CONTRAT D'ASSOCIATION TOUTES CLASSES;06;MINISTERE DE L'EDUCATION NATIONALE;1972-06-19
0121162Y;Ecole primaire publique;ECOLE PRIMAIRE PUBLIQUE;;Public;;LE CHATEAU BAS;;12300;BOISSE PENCHOT;Boisse-Penchot;636986.6;6388260.3;EPSG:2154;44.59057739775201;2.2061198902668213;Correcte;Rue;151;ECOLE DE NIVEAU ELEMENTAIRE;1;OUVERT;012;76;16;12028;Aveyron;Occitanie;Toulouse;44.59057739775201,2.2061198902668213;99;SANS OBJET;06;MINISTERE DE L'EDUCATION NATIONALE;1972-06-05
0121165B;Ecole primaire publique Jules Verne;ECOLE PRIMAIRE PUBLIQUE;JULES VERNE;Public;Route de la Tune;;;12230;LA CAVALERIE;La Cavalerie;712824.9;6323160.0;EPSG:2154;44.00732484439991;3.1599197839886157;Parfaite;Rue;151;ECOLE DE NIVEAU ELEMENTAIRE;1;OUVERT;012;76;16;12063;Aveyron;Occitanie;Toulouse;44.00732484439991,3.1599197839886157;99;SANS OBJET;06;MINISTERE DE L'EDUCATION NATIONALE;1972-06-05
0121167D;Ecole primaire publique;ECOLE PRIMAIRE PUBLIQUE;;Public;;LE BOURG;;12390;MAYRAN;Mayran;649285.7;6365647.5;EPSG:2154;44.38802560014557;2.3633605629196173;Correcte;Ville;151;ECOLE DE NIVEAU ELEMENTAIRE;1;OUVERT;012;76;16;12142;Aveyron;Occitanie;Toulouse;44.38802560014557,2.3633605629196173;99;SANS OBJET;06;MINISTERE DE L'EDUCATION NATIONALE;1972-06-05
0121172J;école primaire publique Jouels;ECOLE PRIMAIRE PUBLIQUE;JOUELS;Public;5 route de la Roumégouse;JOUELS;;12800;SAUVETERRE DE ROUERGUE;Sauveterre-de-Rouergue;646114.6;6350571.5;EPSG:2154;44.252087805007015;2.3251715800053723;Moyenne;Rue;151;ECOLE DE NIVEAU ELEMENTAIRE;1;OUVERT;012;76;16;12262;Aveyron;Occitanie;Toulouse;44.252087805007015,2.3251715800053723;99;SANS OBJET;06;MINISTERE DE L'EDUCATION NATIONALE;1972-06-05
0121184X;Ecole primaire publique Carcenac-Peyrales;ECOLE PRIMAIRE PUBLIQUE;CARCENAC-PEYRALES;Public;Rue de la fontaine;CARCENAC-PEYRALES;;12160;BARAQUEVILLE;Baraqueville;653931.4;6351893.6;EPSG:2154;44.264545604136025;2.4229397147364398;Correcte;Rue;151;ECOLE DE NIVEAU ELEMENTAIRE;1;OUVERT;012;76;16;12056;Aveyron;Occitanie;Toulouse;44.264545604136025,2.4229397147364398;99;SANS OBJET;06;MINISTERE DE L'EDUCATION NATIONALE;1973-06-14
0121196K;JEAN LAROCHE;ECOLE ELEMENTAIRE PUBLIQUE;JEAN LAROCHE;Public;30 boulevard des Capucines;;;12850;ONET LE CHATEAU;Onet-le-Château;667790.0;6363129.7;EPSG:2154;44.36645946998999;2.5958099330716182;Parfaite;Numéro de rue;151;ECOLE DE NIVEAU ELEMENTAIRE;1;OUVERT;012;76;16;12176;Aveyron;Occitanie;Toulouse;44.36645946998999,2.5958099330716182;99;SANS OBJET;06;MINISTERE DE L'EDUCATION NATIONALE;1973-06-14
0121203T;Ecole primaire publique du Cernon;ECOLE PRIMAIRE PUBLIQUE;DU CERNON;Public;7 chemin des Rivières;;;12100;ST GEORGES DE LUZENCON;Saint-Georges-de-Luzençon;698690.9;6329287.3;EPSG:2154;44.06258673926725;2.983660376487026;Parfaite;Numéro de rue;151;ECOLE DE NIVEAU ELEMENTAIRE;1;OUVERT;012;76;16;12225;Aveyron;Occitanie;Toulouse;44.06258673926725,2.983660376487026;99;SANS OBJET;06;MINISTERE DE L'EDUCATION NATIONALE;1973-06-14
0121208Y;Ecole primaire publique;ECOLE PRIMAIRE PUBLIQUE;;Public;;LE BOURG;;12190;SEBRAZAC;Sébrazac;672762.9;6380789.4;EPSG:2154;44.52564104996443;2.657250055643831;Correcte;Ville;151;ECOLE DE NIVEAU ELEMENTAIRE;1;OUVERT;012;76;16;12265;Aveyron;Occitanie;Toulouse;44.52564104996443,2.657250055643831;99;SANS OBJET;06;MINISTERE DE L'EDUCATION NATIONALE;1973-06-14
0121236D;Jean-Albert Bessière;ECOLE PRIMAIRE PUBLIQUE;JEAN-ALBERT BESSIERE;Public;896 avenue du Rouergue;;;12000;RODEZ;Rodez;664900.4;6362981.5;EPSG:2154;44.36498633499905;2.5595606230713823;Parfaite;Numéro de rue;151;ECOLE DE NIVEAU ELEMENTAIRE;1;OUVERT;012;76;16;12202;Aveyron;Occitanie;Toulouse;44.36498633499905,2.5595606230713823;99;SANS OBJET;06;MINISTERE DE L'EDUCATION NATIONALE;1975-05-29
0121248S;Ecole élémentaire publique Les Genêts;ECOLE ELEMENTAIRE PUBLIQUE;LES GENETS;Public;Rue des Genêts;;;12850;ONET LE CHATEAU;Onet-le-Château;667234.5;6363262.7;EPSG:2154;44.36763085318963;2.5888306260946976;Parfaite;Numéro de rue;151;ECOLE DE NIVEAU ELEMENTAIRE;1;OUVERT;012;76;16;12176;Aveyron;Occitanie;Toulouse;44.36763085318963,2.5888306260946976;99;SANS OBJET;06;MINISTERE DE L'EDUCATION NATIONALE;1975-05-29
0121256A;Collège privé Jeanne d'Arc;COLLEGE PRIVE;JEANNE D'ARC;Privé;8 boulevard E BOREL;;273;12401;ST AFFRIQUE CEDEX;Saint-Affrique;691104.9;6317578.9;EPSG:2154;43.95715667403702;2.8891803551269035;Correcte;Numéro de rue;340;COLLEGE;1;OUVERT;012;76;16;12208;Aveyron;Occitanie;Toulouse;43.95715667403702,2.8891803551269035;30;CONTRAT D'ASSOCIATION TOUTES CLASSES;06;MINISTERE DE L'EDUCATION NATIONALE;1980-06-24
0121257B;Collège privé Sainte-Foy;COLLEGE PRIVE;SAINTE-FOY;Privé;17 avenue F CABROL;;;12300;DECAZEVILLE;Decazeville;640713.1;6384776.7;EPSG:2154;44.55954521418863;2.2534805696126146;Parfaite;Numéro de rue;340;COLLEGE;1;OUVERT;012;76;16;12089;Aveyron;Occitanie;Toulouse;44.55954521418863,2.2534805696126146;30;CONTRAT D'ASSOCIATION TOUTES CLASSES;06;MINISTERE DE L'EDUCATION NATIONALE;1980-06-24
0121258C;Collège privé Immaculée Conception;COLLEGE PRIVE;IMMACULEE CONCEPTION;Privé;Rue AUZUECH;;;12500;ESPALION;Espalion;681740.0;6380680.0;EPSG:2154;44.52494918668964;2.7702205260734996;Parfaite;Numéro de rue;340;COLLEGE;1;OUVERT;012;76;16;12096;Aveyron;Occitanie;Toulouse;44.52494918668964,2.7702205260734996;30;CONTRAT D'ASSOCIATION TOUTES CLASSES;06;MINISTERE DE L'EDUCATION NATIONALE;1980-06-24
0121277Y;Ecole primaire publique Franck Brinsolaro;ECOLE PRIMAIRE PUBLIQUE;FRANCK BRINSOLARO;Public;;LE BOURG;;12620;ST BEAUZELY;Saint-Beauzély;696678.6;6340490.7;EPSG:2154;44.16341599503557;2.958470170151823;Correcte;Ville;151;ECOLE DE NIVEAU ELEMENTAIRE;1;OUVERT;012;76;16;12213;Aveyron;Occitanie;Toulouse;44.16341599503557,2.958470170151823;99;SANS OBJET;06;MINISTERE DE L'EDUCATION NATIONALE;1976-07-06
0121292P;Lycée agricole privé Charles Palies de Saint-Affrique;LYCEE AGRICOLE PRIVE;CH. PALIES - ST AFFRIQUE;Privé;23 rue lamartine;;;12400;ST AFFRIQUE;Saint-Affrique;691243.4;6317555.7;EPSG:2154;43.956949617268094;2.8909062551410747;Parfaite;Numéro de rue;320;LYCEE PROFESSIONNEL;1;OUVERT;012;76;16;12208;Aveyron;Occitanie;Toulouse;43.956949617268094,2.8909062551410747;99;SANS OBJET;03;AGRICULTURE;1977-09-04
0121325A;Ecole primaire publique François Mitterrand;ECOLE PRIMAIRE PUBLIQUE;FRANCOIS MITTERRAND;Public;Rue de Varsovie;;;12000;RODEZ;Rodez;664741.7;6362396.9;EPSG:2154;44.359716093947334;2.557610351834493;Parfaite;Rue;151;ECOLE DE NIVEAU ELEMENTAIRE;1;OUVERT;012;76;16;12202;Aveyron;Occitanie;Toulouse;44.359716093947334,2.557610351834493;99;SANS OBJET;06;MINISTERE DE L'EDUCATION NATIONALE;1981-09-01
0121354G;Ecole primaire publique Les Hauts du Viaur;ECOLE PRIMAIRE PUBLIQUE;LES HAUTS DU VIAUR;Public;;LE BOURG;;12120;STE JULIETTE SUR VIAUR;Sainte-Juliette-sur-Viaur;661795.2;6346225.6;EPSG:2154;44.214001627140554;2.521869768185839;Correcte;Ville;151;ECOLE DE NIVEAU ELEMENTAIRE;1;OUVERT;012;76;16;12234;Aveyron;Occitanie;Toulouse;44.214001627140554,2.521869768185839;99;SANS OBJET;06;MINISTERE DE L'EDUCATION NATIONALE;1984-09-01
0121370Z;Ecole primaire privee    Saint-Paul;ECOLE PRIMAIRE PRIVEE;SAINT-PAUL;Privé;7 avenue Amans Rodat;;;12000;RODEZ;Rodez;665479.1;6361411.1;EPSG:2154;44.350879275127674;2.5669302374606513;Parfaite;Numéro de rue;151;ECOLE DE NIVEAU ELEMENTAIRE;1;OUVERT;012;76;16;12202;Aveyron;Occitanie;Toulouse;44.350879275127674,2.5669302374606513;30;CONTRAT D'ASSOCIATION TOUTES CLASSES;06;MINISTERE DE L'EDUCATION NATIONALE;1987-09-01
0121380K;Ecole primaire publique;ECOLE PRIMAIRE PUBLIQUE;;Public;;LE BOURG;;12130;PIERREFICHE;Pierrefiche;695876.1;6371613.7;EPSG:2154;44.44356047596149;2.948180560441508;Correcte;Ville;151;ECOLE DE NIVEAU ELEMENTAIRE;1;OUVERT;012;76;16;12182;Aveyron;Occitanie;Toulouse;44.44356047596149,2.948180560441508;99;SANS OBJET;06;MINISTERE DE L'EDUCATION NATIONALE;1989-09-01
0121383N;Section d'enseignement professionnel du Lycée polyvalent Jean Jaurès;SECTION ENSEIGNT PROFESSIONNEL;LPO JEAN JAURES;Public;625 avenue Jean Jaurès;;;12400;ST AFFRIQUE;Saint-Affrique;691636.9;6316746.0;EPSG:2154;43.949667377705964;2.8958219620057895;Parfaite;Numéro de rue;334;SECTION D ENSEIGNEMENT PROFESSIONNEL;1;OUVERT;012;76;16;12208;Aveyron;Occitanie;Toulouse;43.949667377705964,2.8958219620057895;99;SANS OBJET;06;MINISTERE DE L'EDUCATION NATIONALE;1990-09-01
0121436W;Ecole primaire publique Nuces;ECOLE PRIMAIRE PUBLIQUE;NUCES;Public;;NUCES;;12330;VALADY;Valady;655619.9;6371779.8;EPSG:2154;44.443657120758076;2.4423301264131148;Parfaite;Numéro de rue;151;ECOLE DE NIVEAU ELEMENTAIRE;1;OUVERT;012;76;16;12288;Aveyron;Occitanie;Toulouse;44.443657120758076,2.4423301264131148;99;SANS OBJET;06;MINISTERE DE L'EDUCATION NATIONALE;1995-09-01
0121453P;Ecole primaire privée La Calandréta;ECOLE PRIMAIRE PRIVEE;LA CALANDRETA;Privé;15 place du Marechal Foch;15 rue de la gare;;12000;RODEZ;Rodez;665975.8;6361215.5;EPSG:2154;44.34914294244051;2.5731745535337827;Correcte;Rue;151;ECOLE DE NIVEAU ELEMENTAIRE;1;OUVERT;012;76;16;12202;Aveyron;Occitanie;Toulouse;44.34914294244051,2.5731745535337827;30;CONTRAT D'ASSOCIATION TOUTES CLASSES;06;MINISTERE DE L'EDUCATION NATIONALE;2000-05-01
0121517J;Collège Privé Hors Contrat Saint Ipoli;COLLEGE PRIVE HORS CONTRAT;SAINT IPOLI;Privé;Bourg;;;12140;ST HIPPOLYTE;Saint-Hippolyte;555755.6;6663922.3;EPSG:2154;47.05992076920119;1.0994185953018596;Mauvaise;Ville;340;COLLEGE;1;OUVERT;012;76;16;12226;Aveyron;Occitanie;Toulouse;47.05992076920119,1.0994185953018596;10;HORS CONTRAT;06;MINISTERE DE L'EDUCATION NATIONALE;2021-09-01
0300016E;Collège de La Regordane;COLLEGE;DE LA REGORDANE;Public;PLAN DE L OLI;;;30450;GENOLHAC;Génolhac;775613.6;6361627.6;EPSG:2154;44.349591915242776;3.9485802288729492;Parfaite;Numéro de rue;340;COLLEGE;1;OUVERT;030;76;11;30130;Gard;Occitanie;Montpellier;44.349591915242776,3.9485802288729492;99;SANS OBJET;06;MINISTERE DE L'EDUCATION NATIONALE;1965-05-01
0300042H;Collège Marceau Lapierre;COLLEGE;MARCEAU LAPIERRE;Public;Quartier DES FUMADES;;;30270;ST JEAN DU GARD;Saint-Jean-du-Gard;771192.7;6334841.7;EPSG:2154;44.10897103822605;3.889339944610528;Parfaite;Numéro de rue;340;COLLEGE;1;OUVERT;030;76;11;30269;Gard;Occitanie;Montpellier;44.10897103822605,3.889339944610528;99;SANS OBJET;06;MINISTERE DE L'EDUCATION NATIONALE;1965-05-01
0300047N;Lycée polyvalent des Métiers d'Art Charles Gide;LYCEE POLYVALENT;DES METIERS D'ART CHARLES GIDE;Public;1 place de Verdun;;91105;30703;UZES CEDEX;Uzès;813939.4;6324925.6;EPSG:2154;44.01410480411072;4.4210093917967725;Parfaite;Numéro de rue;306;LYCEE POLYVALENT;1;OUVERT;030;76;11;30334;Gard;Occitanie;Montpellier;44.01410480411072,4.4210093917967725;99;SANS OBJET;06;MINISTERE DE L'EDUCATION NATIONALE;1965-05-01
0300057Z;Lycée professionnel Gaston Darboux, Lycée des métiers des services aux entreprises;LP LYCEE DES METIERS;GASTON DARBOUX;Public;7 rue JULES RAIMU;;;30908;NIMES CEDEX 2;Nîmes;806868.7;6303169.0;EPSG:2154;43.819444363043125;4.32827956241038;Parfaite;Numéro de rue;320;LYCEE PROFESSIONNEL;1;OUVERT;030;76;11;30189;Gard;Occitanie;Montpellier;43.819444363043125,4.32827956241038;99;SANS OBJET;06;MINISTERE DE L'EDUCATION NATIONALE;1965-10-27
0300077W;Lycée général et technologique privé Bellevue;LYCEE GEN.ET TECHNOL.PRIVE;BELLEVUE;Privé;11 rue DE LA GLACIERE;;;30100;ALES;Alès;786798.6;6337718.6;EPSG:2154;44.13310685683903;4.084760373734498;Parfaite;Numéro de rue;300;LYCEE ENSEIGNT GENERAL ET TECHNOLOGIQUE;1;OUVERT;030;76;11;30007;Gard;Occitanie;Montpellier;44.13310685683903,4.084760373734498;30;CONTRAT D'ASSOCIATION TOUTES CLASSES;06;MINISTERE DE L'EDUCATION NATIONALE;1967-03-08
0300088H;Collège privé Saint Jean;COLLEGE PRIVE;SAINT JEAN;Privé;10  RUE DU CASINO;;;30200;BAGNOLS SUR CEZE;Bagnols-sur-Cèze;829654.6;6342066.1;EPSG:2154;44.16562228978377;4.621340588928369;Parfaite;Numéro de rue;340;COLLEGE;1;OUVERT;030;76;11;30028;Gard;Occitanie;Montpellier;44.16562228978377,4.621340588928369;30;CONTRAT D'ASSOCIATION TOUTES CLASSES;06;MINISTERE DE L'EDUCATION NATIONALE;1967-03-03
0300089J;Collège privé d'Alzon Saint-Felix;COLLEGE PRIVE;D'ALZON SAINT-FELIX;Privé;6 rue de la République;;;30300;BEAUCAIRE;Beaucaire;832236.8;6302437.4;EPSG:2154;43.80856664177133;4.643310167255931;Parfaite;Numéro de rue;340;COLLEGE;1;OUVERT;030;76;11;30032;Gard;Occitanie;Montpellier;43.80856664177133,4.643310167255931;30;CONTRAT D'ASSOCIATION TOUTES CLASSES;06;MINISTERE DE L'EDUCATION NATIONALE;1967-03-03
0300093N;Collège privé Saint-Jean-Baptiste de La Salle;COLLEGE PRIVE;ST-JEAN-BAPTISTE DE LA SALLE;Privé;4  RUE RIVAROL;;;30000;NIMES;Nîmes;809368.9;6304390.3;EPSG:2154;43.83005028837675;4.359610020259243;Parfaite;Numéro de rue;340;COLLEGE;1;OUVERT;030;76;11;30189;Gard;Occitanie;Montpellier;43.83005028837675,4.359610020259243;30;CONTRAT D'ASSOCIATION TOUTES CLASSES;06;MINISTERE DE L'EDUCATION NATIONALE;1967-03-03
0300127A;Lycée polyvalent privé Saint Vincent de Paul, lycée des métiers des services;LYC POLYVAL PRIVE DES METIERS;ST VINCENT DE PAUL;Privé;3 boulevard DE BRUXELLES;;;30020;NIMES CEDEX 1;Nîmes;809596.0;6304845.4;EPSG:2154;43.834109902792484;4.3625302479765935;Correcte;Rue;306;LYCEE POLYVALENT;1;OUVERT;030;76;11;30189;Gard;Occitanie;Montpellier;43.834109902792484,4.3625302479765935;30;CONTRAT D'ASSOCIATION TOUTES CLASSES;06;MINISTERE DE L'EDUCATION NATIONALE;1967-03-09
0300198C;Ecole élémentaire Veigalier;ECOLE ELEMENTAIRE PUBLIQUE;VEIGALIER;Public;Rue Veigalier;;;30100;ALES;Alès;786739.5;6336602.0;EPSG:2154;44.123065097752196;4.083830339897348;Parfaite;Numéro de rue;151;ECOLE DE NIVEAU ELEMENTAIRE;1;OUVERT;030;76;11;30007;Gard;Occitanie;Montpellier;44.123065097752196,4.083830339897348;99;SANS OBJET;06;MINISTERE DE L'EDUCATION NATIONALE;1967-10-09
0300208N;Ecole élémentaire François Rabelais groupe 1;ECOLE ELEMENTAIRE PUBLIQUE;FRANCOIS RABELAIS GR1;Public;Rue Emile Jamais;;;30390;ARAMON;Aramon;834954.3;6312005.7;EPSG:2154;43.89413927065905;4.679599384433002;Parfaite;Numéro de rue;151;ECOLE DE NIVEAU ELEMENTAIRE;1;OUVERT;030;76;11;30012;Gard;Occitanie;Montpellier;43.89413927065905,4.679599384433002;99;SANS OBJET;06;MINISTERE DE L'EDUCATION NATIONALE;1967-10-09
0300209P;Ecole élémentaire les Paluns groupe 2;ECOLE ELEMENTAIRE PUBLIQUE;LES PALUNS GR2;Public;Avenue Saint-Martin;;;30390;ARAMON;Aramon;834820.2;6312228.7;EPSG:2154;43.89617132871387;4.677989889492392;Parfaite;Numéro de rue;151;ECOLE DE NIVEAU ELEMENTAIRE;1;OUVERT;030;76;11;30012;Gard;Occitanie;Montpellier;43.89617132871387,4.677989889492392;99;SANS OBJET;06;MINISTERE DE L'EDUCATION NATIONALE;1967-10-09
0300213U;Ecole élémentaire;ECOLE ELEMENTAIRE PUBLIQUE;;Public;Place de la Mairie;;;30120;ARRE;Arre;741767.0;6318832.9;EPSG:2154;43.96725971448104;3.520450143601211;Parfaite;Numéro de rue;151;ECOLE DE NIVEAU ELEMENTAIRE;1;OUVERT;030;76;11;30016;Gard;Occitanie;Montpellier;43.96725971448104,3.520450143601211;99;SANS OBJET;06;MINISTERE DE L'EDUCATION NATIONALE;1967-10-09
0300220B;Ecole élémentaire;ECOLE ELEMENTAIRE PUBLIQUE;;Public;;Le village;;30450;AUJAC;Aujac;780847.0;6361505.1;EPSG:2154;44.34790383042464;4.014207034621947;Mauvaise;Ville;151;ECOLE DE NIVEAU ELEMENTAIRE;1;OUVERT;030;76;11;30022;Gard;Occitanie;Montpellier;44.34790383042464,4.014207034621947;99;SANS OBJET;06;MINISTERE DE L'EDUCATION NATIONALE;1967-10-09
0300223E;Ecole maternelle;ECOLE MATERNELLE PUBLIQUE;;Public;Place de la Mairie;;;30770;AUMESSAS;Aumessas;740422.4;6321533.2;EPSG:2154;43.9916398603588;3.503910543116848;Parfaite;Numéro de rue;101;ECOLE MATERNELLE;1;OUVERT;030;76;11;30025;Gard;Occitanie;Montpellier;43.9916398603588,3.503910543116848;99;SANS OBJET;06;MINISTERE DE L'EDUCATION NATIONALE;1967-10-09
0300224F;Ecole primaire;ECOLE PRIMAIRE PUBLIQUE;;Public;Place de la Mairie;;;30120;AVEZE;Avèze;748190.2;6319202.4;EPSG:2154;43.97017471825076;3.6005204754086044;Parfaite;Numéro de rue;151;ECOLE DE NIVEAU ELEMENTAIRE;1;OUVERT;030;76;11;30026;Gard;Occitanie;Montpellier;43.97017471825076,3.6005204754086044;99;SANS OBJET;06;MINISTERE DE L'EDUCATION NATIONALE;1967-10-09
0300234S;Ecole maternelle Jules Ferry;ECOLE MATERNELLE PUBLIQUE;JULES FERRY;Public;Allée de Newbury;;;30200;BAGNOLS SUR CEZE;Bagnols-sur-Cèze;829509.3;6341191.5;EPSG:2154;44.15777876276049;4.619299856499203;Parfaite;Rue;101;ECOLE MATERNELLE;1;OUVERT;030;76;11;30028;Gard;Occitanie;Montpellier;44.15777876276049,4.619299856499203;99;SANS OBJET;06;MINISTERE DE L'EDUCATION NATIONALE;1967-10-09
0300241Z;Ecole maternelle Château;ECOLE MATERNELLE PUBLIQUE;CHATEAU;Public;14 rue du Château;;;30300;BEAUCAIRE;Beaucaire;832189.7;6302379.0;EPSG:2154;43.808050039927025;4.642709927372326;Parfaite;Numéro de rue;101;ECOLE MATERNELLE;1;OUVERT;030;76;11;30032;Gard;Occitanie;Montpellier;43.808050039927025,4.642709927372326;99;SANS OBJET;06;MINISTERE DE L'EDUCATION NATIONALE;1967-10-09
0300249H;Ecole maternelle Puech Cabrier;ECOLE MATERNELLE PUBLIQUE;PUECH CABRIER;Public;Avenue Jules Ferry;;;30300;BEAUCAIRE;Beaucaire;831146.3;6302623.0;EPSG:2154;43.810439848505254;4.629809958917996;Parfaite;Rue;101;ECOLE MATERNELLE;1;OUVERT;030;76;11;30032;Gard;Occitanie;Montpellier;43.810439848505254,4.629809958917996;99;SANS OBJET;06;MINISTERE DE L'EDUCATION NATIONALE;1967-10-09
0300252L;Ecole maternelle Condamine;ECOLE MATERNELLE PUBLIQUE;CONDAMINE;Public;2 ter rue Jean Moulin;;;30300;BEAUCAIRE;Beaucaire;831704.9;6302544.5;EPSG:2154;43.809629620292924;4.636729712573175;Parfaite;Numéro de rue;101;ECOLE MATERNELLE;1;OUVERT;030;76;11;30032;Gard;Occitanie;Montpellier;43.809629620292924,4.636729712573175;99;SANS OBJET;06;MINISTERE DE L'EDUCATION NATIONALE;1967-10-09
0300276M;Ecole primaire Elie Desplan;ECOLE PRIMAIRE PUBLIQUE;ELIE DESPLAN;Public;Rue Basse;;;30114;BOISSIERES;Boissières;799413.4;6298214.2;EPSG:2154;43.775951643311004;4.234669874776575;Parfaite;Numéro de rue;151;ECOLE DE NIVEAU ELEMENTAIRE;1;OUVERT;030;76;11;30043;Gard;Occitanie;Montpellier;43.775951643311004,4.234669874776575;99;SANS OBJET;06;MINISTERE DE L'EDUCATION NATIONALE;1967-10-09
0300292E;Ecole élémentaire;ECOLE ELEMENTAIRE PUBLIQUE;;Public;Rue du 8 Mai 1945;;;30580;BROUZET LES ALES;Brouzet-lès-Alès;799557.8;6338465.9;EPSG:2154;44.13813864410778;4.2443401808775105;Parfaite;Numéro de rue;151;ECOLE DE NIVEAU ELEMENTAIRE;1;OUVERT;030;76;11;30055;Gard;Occitanie;Montpellier;44.13813864410778,4.2443401808775105;99;SANS OBJET;06;MINISTERE DE L'EDUCATION NATIONALE;1967-10-09
0300324P;Ecole maternelle Joliot-Curie Abbaye;ECOLE MATERNELLE PUBLIQUE;JOLIOT-CURIE ABBAYE;Public;Place Salvador Allende;;;30480;CENDRAS;Cendras;784236.5;6340272.8;EPSG:2154;44.15640632713618;4.053170257796737;Parfaite;Numéro de rue;101;ECOLE MATERNELLE;1;OUVERT;030;76;11;30077;Gard;Occitanie;Montpellier;44.15640632713618,4.053170257796737;99;SANS OBJET;06;MINISTERE DE L'EDUCATION NATIONALE;1967-10-09
0300355Y;Ecole élémentaire la Planète;ECOLE ELEMENTAIRE PUBLIQUE;LA PLANETE;Public;14 route Vieille;;;30360;CRUVIERS LASCOURS;Cruviers-Lascours;796072.7;6323994.9;EPSG:2154;44.008396288305335;4.198043903794869;Correcte;Rue;151;ECOLE DE NIVEAU ELEMENTAIRE;1;OUVERT;030;76;11;30100;Gard;Occitanie;Montpellier;44.008396288305335,4.198043903794869;99;SANS OBJET;06;MINISTERE DE L'EDUCATION NATIONALE;1967-10-09
0300371R;Ecole primaire les Aires Blanches;ECOLE PRIMAIRE PUBLIQUE;LES AIRES BLANCHES;Public;GRAND'RUE;;;30210;FOURNES;Fournès;828655.2;6315709.2;EPSG:2154;43.92863943800736;4.602159864515072;Parfaite;Rue;151;ECOLE DE NIVEAU ELEMENTAIRE;1;OUVERT;030;76;11;30116;Gard;Occitanie;Montpellier;43.92863943800736,4.602159864515072;99;SANS OBJET;06;MINISTERE DE L'EDUCATION NATIONALE;1967-10-09
0300384E;Ecole élémentaire;ECOLE ELEMENTAIRE PUBLIQUE;;Public;Place de la Mairie;;;30760;LE GARN;Le Garn;817463.0;6357588.8;EPSG:2154;44.307465874961316;4.47254030479462;Parfaite;Numéro de rue;151;ECOLE DE NIVEAU ELEMENTAIRE;1;OUVERT;030;76;11;30124;Gard;Occitanie;Montpellier;44.307465874961316,4.47254030479462;99;SANS OBJET;06;MINISTERE DE L'EDUCATION NATIONALE;1967-10-09
0300413L;Ecole primaire;ECOLE PRIMAIRE;;Public;Place du Temple;;;30440;ST LAURENT LE MINIER;Saint-Laurent-le-Minier;752658.7;6314932.8;EPSG:2154;43.93143111603867;3.65576023134612;Parfaite;Rue;151;ECOLE DE NIVEAU ELEMENTAIRE;1;OUVERT;030;76;11;30280;Gard;Occitanie;Montpellier;43.93143111603867,3.65576023134612;99;SANS OBJET;06;MINISTERE DE L'EDUCATION NATIONALE;1967-10-11
0300416P;Ecole primaire;ECOLE PRIMAIRE PUBLIQUE;;Public;Route des Ecoliers;;;30330;ST MARCEL DE CAREIRET;Saint-Marcel-de-Careiret;819101.3;6339461.4;EPSG:2154;44.14405329378337;4.4887893935323975;Correcte;Rue;151;ECOLE DE NIVEAU ELEMENTAIRE;1;OUVERT;030;76;11;30282;Gard;Occitanie;Montpellier;44.14405329378337,4.4887893935323975;99;SANS OBJET;06;MINISTERE DE L'EDUCATION NATIONALE;1967-10-11
0300437M;Ecole Primaire;ECOLE PRIMAIRE;;Public;Place de la Mairie;;;30330;ST PONS LA CALM;Saint-Pons-la-Calm;824569.0;6335037.2;EPSG:2154;44.10329180582772;4.556029725871912;Parfaite;Numéro de rue;151;ECOLE DE NIVEAU ELEMENTAIRE;1;OUVERT;030;76;11;30292;Gard;Occitanie;Montpellier;44.10329180582772,4.556029725871912;99;SANS OBJET;06;MINISTERE DE L'EDUCATION NATIONALE;1967-10-11
0300446X;Ecole maternelle publique Le grand jardin;ECOLE MATERNELLE PUBLIQUE;LE GRAND JARDIN;Public;Avenue Marguerite Blanchard;;;30700;ST QUENTIN LA POTERIE;Saint-Quentin-la-Poterie;815525.0;6328221.0;EPSG:2154;44.043500063654015;4.441530253726044;Parfaite;Rue;101;ECOLE MATERNELLE;1;OUVERT;030;76;11;30295;Gard;Occitanie;Montpellier;44.043500063654015,4.441530253726044;99;SANS OBJET;06;MINISTERE DE L'EDUCATION NATIONALE;1967-10-11
0300452D;Ecole maternelle Jules Ferry;ECOLE MATERNELLE PUBLIQUE;JULES FERRY;Public;Rue Jules Ferry;;;30110;LA GRAND COMBE;La Grand-Combe;782221.8;6346566.8;EPSG:2154;44.21329162119569;4.029009686969782;Parfaite;Numéro de rue;101;ECOLE MATERNELLE;1;OUVERT;030;76;11;30132;Gard;Occitanie;Montpellier;44.21329162119569,4.029009686969782;99;SANS OBJET;06;MINISTERE DE L'EDUCATION NATIONALE;1967-10-10
0300460M;Ecole élémentaire Victor Hugo;ECOLE ELEMENTAIRE PUBLIQUE;VICTOR HUGO;Public;22 rue Platon;;;30110;LA GRAND COMBE;La Grand-Combe;781304.9;6347277.3;EPSG:2154;44.21979322150201;4.017650509020852;Parfaite;Numéro de rue;151;ECOLE DE NIVEAU ELEMENTAIRE;1;OUVERT;030;76;11;30132;Gard;Occitanie;Montpellier;44.21979322150201,4.017650509020852;99;SANS OBJET;06;MINISTERE DE L'EDUCATION NATIONALE;1967-10-10
0300520C;Ecole primaire;ECOLE PRIMAIRE PUBLIQUE;;Public;;LE PONT;;30340;MEJANNES LES ALES;Méjannes-lès-Alès;792290.4;6333855.1;EPSG:2154;44.097636696140434;4.152679565128648;Parfaite;Numéro de rue;151;ECOLE DE NIVEAU ELEMENTAIRE;1;OUVERT;030;76;11;30165;Gard;Occitanie;Montpellier;44.097636696140434,4.152679565128648;99;SANS OBJET;06;MINISTERE DE L'EDUCATION NATIONALE;1967-10-10
0300522E;Ecole élémentaire;ECOLE ELEMENTAIRE PUBLIQUE;;Public;Rue du 19 Mars;;;30840;MEYNES;Meynes;825440.7;6310264.9;EPSG:2154;43.88023315918825;4.56079989267557;Parfaite;Numéro de rue;151;ECOLE DE NIVEAU ELEMENTAIRE;1;OUVERT;030;76;11;30166;Gard;Occitanie;Montpellier;43.88023315918825,4.56079989267557;99;SANS OBJET;06;MINISTERE DE L'EDUCATION NATIONALE;1967-10-10
0300532R;Ecole élémentaire;ECOLE ELEMENTAIRE PUBLIQUE;;Public;Place de la Mairie;;;30120;MOLIERES CAVAILLAC;Molières-Cavaillac;746276.9;6319759.9;EPSG:2154;43.97532030858563;3.5767295612594983;Parfaite;Numéro de rue;151;ECOLE DE NIVEAU ELEMENTAIRE;1;OUVERT;030;76;11;30170;Gard;Occitanie;Montpellier;43.97532030858563,3.5767295612594983;99;SANS OBJET;06;MINISTERE DE L'EDUCATION NATIONALE;1967-10-10
0300547G;Ecole primaire;ECOLE PRIMAIRE PUBLIQUE;;Public;22 rue des Ecoles;;;30120;MONTDARDIER;Montdardier;747584.4;6314432.8;EPSG:2154;43.927292444096736;3.5925256112053647;Parfaite;Numéro de rue;151;ECOLE DE NIVEAU ELEMENTAIRE;1;OUVERT;030;76;11;30176;Gard;Occitanie;Montpellier;43.927292444096736,3.5925256112053647;99;SANS OBJET;06;MINISTERE DE L'EDUCATION NATIONALE;1967-10-10
0300564A;Ecole primaire;ECOLE PRIMAIRE PUBLIQUE;;Public;VILLAGE;;;30360;NERS;Ners;792845.9;6325792.3;EPSG:2154;44.02500434574796;4.158139715026656;Parfaite;Numéro de rue;151;ECOLE DE NIVEAU ELEMENTAIRE;1;OUVERT;030;76;11;30188;Gard;Occitanie;Montpellier;44.02500434574796,4.158139715026656;99;SANS OBJET;06;MINISTERE DE L'EDUCATION NATIONALE;1967-10-10
0300579S;Ecole maternelle Georges Bruguier;ECOLE MATERNELLE PUBLIQUE;GEORGES BRUGUIER;Public;6 avenue de Lattre de Tassigny;;;30000;NIMES;Nîmes;811683.5;6305983.7;EPSG:2154;43.84402471038248;4.388726234439927;Parfaite;Numéro de rue;101;ECOLE MATERNELLE;1;OUVERT;030;76;11;30189;Gard;Occitanie;Montpellier;43.84402471038248,4.388726234439927;99;SANS OBJET;06;MINISTERE DE L'EDUCATION NATIONALE;1967-10-10
0300588B;Ecole élémentaire Léo Rousson;ECOLE ELEMENTAIRE PUBLIQUE;LEO ROUSSON;Public;327 rue Robert Schumann;;;30000;NIMES;Nîmes;811521.9;6305490.9;EPSG:2154;43.83961621343879;4.386609642101471;Parfaite;Numéro de rue;151;ECOLE DE NIVEAU ELEMENTAIRE;1;OUVERT;030;76;11;30189;Gard;Occitanie;Montpellier;43.83961621343879,4.386609642101471;99;SANS OBJET;06;MINISTERE DE L'EDUCATION NATIONALE;1967-10-10
